[{"geonameid":9165712,"name":"Kabul University","latitude":34.51778,"longitude":69.12806,"featureClass":"S","featureCode":"UNIV","countryCode":"AF","timezone":"Asia\/Kabul"},{"geonameid":9165727,"name":"Takhar University","latitude":36.73135,"longitude":69.54015,"featureClass":"S","featureCode":"UNIV","countryCode":"AF","timezone":"Asia\/Kabul"},{"geonameid":9165728,"name":"Kandahar University","latitude":31.63712,"longitude":65.68116,"featureClass":"S","featureCode":"UNIV","countryCode":"AF","timezone":"Asia\/Kabul"},{"geonameid":9166249,"name":"Afghanistan Institute of Technology","latitude":34.50942,"longitude":69.12916,"featureClass":"S","featureCode":"UNIV","countryCode":"AF","timezone":"Asia\/Kabul"},{"geonameid":9166255,"name":"Herat University","latitude":34.3605,"longitude":62.20513,"featureClass":"S","featureCode":"UNIV","countryCode":"AF","timezone":"Asia\/Kabul"},{"geonameid":9166259,"name":"Nangarhar University","latitude":34.4725,"longitude":70.36917,"featureClass":"S","featureCode":"UNIV","countryCode":"AF","timezone":"Asia\/Kabul"},{"geonameid":9166260,"name":"Balkh University","latitude":36.71007,"longitude":67.12726,"featureClass":"S","featureCode":"UNIV","countryCode":"AF","timezone":"Asia\/Kabul"},{"geonameid":9166262,"name":"Kunduz University","latitude":36.71166,"longitude":68.86343,"featureClass":"S","featureCode":"UNIV","countryCode":"AF","timezone":"Asia\/Kabul"},{"geonameid":9166263,"name":"Kabul Polytechnic","latitude":34.535,"longitude":69.11972,"featureClass":"S","featureCode":"UNIV","countryCode":"AF","timezone":"Asia\/Kabul"},{"geonameid":9166264,"name":"Jawzjan University","latitude":36.67291,"longitude":65.74191,"featureClass":"S","featureCode":"UNIV","countryCode":"AF","timezone":"Asia\/Kabul"},{"geonameid":9166265,"name":"Polytechnical University of Kabul","latitude":34.535,"longitude":69.11972,"featureClass":"S","featureCode":"UNIV","countryCode":"AF","timezone":"Asia\/Kabul"},{"geonameid":9166276,"name":"Badakhshan University","latitude":37.10088,"longitude":70.5562,"featureClass":"S","featureCode":"UNIV","countryCode":"AF","timezone":"Asia\/Kabul"},{"geonameid":9166278,"name":"Khost University","latitude":33.34893,"longitude":69.86908,"featureClass":"S","featureCode":"UNIV","countryCode":"AF","timezone":"Asia\/Kabul"},{"geonameid":9166286,"name":"Albironi University","latitude":35.12804,"longitude":69.32257,"featureClass":"S","featureCode":"UNIV","countryCode":"AF","timezone":"Asia\/Kabul"},{"geonameid":9166301,"name":"Bamyan University","latitude":34.82971,"longitude":67.83588,"featureClass":"S","featureCode":"UNIV","countryCode":"AF","timezone":"Asia\/Kabul"},{"geonameid":9166345,"name":"National Technical Institute","latitude":34.50942,"longitude":69.12916,"featureClass":"S","featureCode":"UNIV","countryCode":"AF","timezone":"Asia\/Kabul"},{"geonameid":9166388,"name":"Paktia University","latitude":33.61497,"longitude":69.22972,"featureClass":"S","featureCode":"UNIV","countryCode":"AF","timezone":"Asia\/Kabul"},{"geonameid":9166389,"name":"Kabul Medical University","latitude":34.51667,"longitude":69.12972,"featureClass":"S","featureCode":"UNIV","countryCode":"AF","timezone":"Asia\/Kabul"},{"geonameid":11072723,"name":"Afghan National Agricultural Sciences and Technology University (ANASTU)","latitude":31.45471,"longitude":65.82994,"featureClass":"S","featureCode":"UNIV","countryCode":"AF","timezone":"Asia\/Kabul"},{"geonameid":11609475,"name":"American University of Antigua","latitude":17.15613,"longitude":-61.79977,"featureClass":"S","featureCode":"UNIV","countryCode":"AG","timezone":"America\/Antigua"},{"geonameid":11610177,"name":"University College of Antigua and Barbuda","latitude":17.11911,"longitude":-61.88113,"featureClass":"S","featureCode":"UNIV","countryCode":"AG","timezone":"America\/Antigua"},{"geonameid":11553974,"name":"University of Tirana","latitude":41.31667,"longitude":19.82167,"featureClass":"S","featureCode":"UNIV","countryCode":"AL","timezone":"Europe\/Tirane"},{"geonameid":10629984,"name":"Armenian National Agrarian University","latitude":40.18861,"longitude":44.52222,"featureClass":"S","featureCode":"UNIV","countryCode":"AM","timezone":"Asia\/Yerevan"},{"geonameid":11071651,"name":"Yerevan State University","latitude":40.18218,"longitude":44.52648,"featureClass":"S","featureCode":"UNIV","countryCode":"AM","timezone":"Asia\/Yerevan"},{"geonameid":10401820,"name":"Jean Piaget University","latitude":-8.908,"longitude":13.40281,"featureClass":"S","featureCode":"UNIV","countryCode":"AO","timezone":"Africa\/Luanda"},{"geonameid":10401880,"name":"Agostinho Neto University","latitude":-8.94208,"longitude":13.28145,"featureClass":"S","featureCode":"UNIV","countryCode":"AO","timezone":"Africa\/Luanda"},{"geonameid":10627509,"name":"Agostinho Neto University Law School","latitude":-8.83789,"longitude":13.23463,"featureClass":"S","featureCode":"UNIV","countryCode":"AO","timezone":"Africa\/Luanda"},{"geonameid":6269187,"name":"Facultad De Odontolog\u00eda","latitude":-32.93985,"longitude":-60.66598,"featureClass":"S","featureCode":"UNIV","countryCode":"AR","timezone":"America\/Argentina\/Cordoba"},{"geonameid":6269188,"name":"Facultad De Medicina","latitude":-32.93995,"longitude":-60.66518,"featureClass":"S","featureCode":"UNIV","countryCode":"AR","timezone":"America\/Argentina\/Cordoba"},{"geonameid":6269189,"name":"Biblioteca Virtual U.N.R.","latitude":-32.94132,"longitude":-60.66616,"featureClass":"S","featureCode":"UNIV","countryCode":"AR","timezone":"America\/Argentina\/Cordoba"},{"geonameid":6943090,"name":"Ciudad Universitaria, UNL, SFE","latitude":-31.63994,"longitude":-60.67258,"featureClass":"S","featureCode":"UNIV","countryCode":"AR","timezone":"America\/Argentina\/Cordoba"},{"geonameid":7290279,"name":"Universidad de Flores","latitude":-38.94021,"longitude":-68.00281,"featureClass":"S","featureCode":"UNIV","countryCode":"AR","timezone":"America\/Argentina\/Salta"},{"geonameid":8285453,"name":"University of Buenos Aires","latitude":-34.59972,"longitude":-58.37306,"featureClass":"S","featureCode":"UNIV","countryCode":"AR","timezone":"America\/Argentina\/Buenos_Aires"},{"geonameid":9253014,"name":"Entrance gate to River Plate Adventist University","latitude":-32.07594,"longitude":-60.46415,"featureClass":"S","featureCode":"UNIV","countryCode":"AR","timezone":"America\/Argentina\/Buenos_Aires"},{"geonameid":11205477,"name":"Facultad de Ciencias Economicas, Universidad de Buenos Aires","latitude":-34.59987,"longitude":-58.39811,"featureClass":"S","featureCode":"UNIV","countryCode":"AR","timezone":"America\/Argentina\/Buenos_Aires"},{"geonameid":6354993,"name":"Universit\u00e4t Wien","latitude":48.21303,"longitude":16.35993,"featureClass":"S","featureCode":"UNIV","countryCode":"AT","timezone":"Europe\/Vienna"},{"geonameid":6697818,"name":"Karl Franzens Universit\u00e4t","latitude":47.07831,"longitude":15.44961,"featureClass":"S","featureCode":"UNIV","countryCode":"AT","timezone":"Europe\/Vienna"},{"geonameid":6697819,"name":"Technische Universit\u00e4t Graz","latitude":47.06865,"longitude":15.45006,"featureClass":"S","featureCode":"UNIV","countryCode":"AT","timezone":"Europe\/Vienna"},{"geonameid":6697820,"name":"Universit\u00e4t f\u00fcr Musik und darstellende Kunst","latitude":47.07252,"longitude":15.45017,"featureClass":"S","featureCode":"UNIV","countryCode":"AT","timezone":"Europe\/Vienna"},{"geonameid":6697821,"name":"Fachhochschule Joanneum","latitude":47.06955,"longitude":15.41236,"featureClass":"S","featureCode":"UNIV","countryCode":"AT","timezone":"Europe\/Vienna"},{"geonameid":6944029,"name":"Technische Universit\u00e4t Wien","latitude":48.199,"longitude":16.3698,"featureClass":"S","featureCode":"UNIV","countryCode":"AT","timezone":"Europe\/Vienna"},{"geonameid":7290281,"name":"Johannes Kepler Universit\u00e4t Linz","latitude":48.33792,"longitude":14.32071,"featureClass":"S","featureCode":"UNIV","countryCode":"AT","timezone":"Europe\/Vienna"},{"geonameid":10400453,"name":"University of Graz","latitude":47.07806,"longitude":15.44917,"featureClass":"S","featureCode":"UNIV","countryCode":"AT","timezone":"Europe\/Vienna"},{"geonameid":11888008,"name":"Universit\u00e4t Salzburg","latitude":47.78824,"longitude":13.06035,"featureClass":"S","featureCode":"UNIV","countryCode":"AT","timezone":"Europe\/Vienna"},{"geonameid":12261380,"name":"Universit\u00e4t f\u00fcr angewandte Kunst Wien","latitude":48.2083,"longitude":16.3847,"featureClass":"S","featureCode":"UNIV","countryCode":"AT","timezone":"Europe\/Vienna"},{"geonameid":6697134,"name":"Southern Cross University","latitude":-28.81791,"longitude":153.30048,"featureClass":"S","featureCode":"UNIV","countryCode":"AU","timezone":"Australia\/Sydney"},{"geonameid":7288143,"name":"University of Sydney","latitude":-33.88778,"longitude":151.18722,"featureClass":"S","featureCode":"UNIV","countryCode":"AU","timezone":"Australia\/Sydney"},{"geonameid":7290280,"name":"Swinburne University of Technology","latitude":-37.82208,"longitude":145.03819,"featureClass":"S","featureCode":"UNIV","countryCode":"AU","timezone":"Australia\/Melbourne"},{"geonameid":8176220,"name":"The University of New South Wales","latitude":-33.9235,"longitude":151.2262,"featureClass":"S","featureCode":"UNIV","countryCode":"AU","timezone":"Australia\/Sydney"},{"geonameid":8829824,"name":"La Trobe University","latitude":-37.72072,"longitude":145.0484,"featureClass":"S","featureCode":"UNIV","countryCode":"AU","timezone":"Australia\/Melbourne"},{"geonameid":10172904,"name":"Deakin University Geelong Waterfront Campus","latitude":-38.14357,"longitude":144.36031,"featureClass":"S","featureCode":"UNIV","countryCode":"AU","timezone":"Australia\/Melbourne"},{"geonameid":10346596,"name":"University of Melbourne Burnley Campus","latitude":-37.82899,"longitude":145.02221,"featureClass":"S","featureCode":"UNIV","countryCode":"AU","timezone":"Australia\/Melbourne"},{"geonameid":11101631,"name":"Queensland University of Technology Caboollure Campus (QUT)","latitude":-27.07471,"longitude":152.96122,"featureClass":"S","featureCode":"UNIV","countryCode":"AU","timezone":"Australia\/Brisbane"},{"geonameid":11668480,"name":"Swinburne University of Technology -Croydon","latitude":-37.80166,"longitude":145.28556,"featureClass":"S","featureCode":"UNIV","countryCode":"AU","timezone":"Australia\/Melbourne"},{"geonameid":11839907,"name":"Artsakh State University","latitude":39.82494,"longitude":46.76203,"featureClass":"S","featureCode":"UNIV","countryCode":"AZ","timezone":"Asia\/Baku"},{"geonameid":8985943,"name":"University of Dhaka","latitude":23.73155,"longitude":90.3925,"featureClass":"S","featureCode":"UNIV","countryCode":"BD","timezone":"Asia\/Dhaka"},{"geonameid":10402608,"name":"North South University","latitude":23.794,"longitude":90.4035,"featureClass":"S","featureCode":"UNIV","countryCode":"BD","timezone":"Asia\/Dhaka"},{"geonameid":11154440,"name":"Institute of Modern Languages","latitude":23.73359,"longitude":90.39418,"featureClass":"S","featureCode":"UNIV","countryCode":"BD","timezone":"Asia\/Dhaka"},{"geonameid":11154441,"name":"Institute for Modern Languages","latitude":23.73361,"longitude":90.39444,"featureClass":"S","featureCode":"UNIV","countryCode":"BD","timezone":"Asia\/Dhaka"},{"geonameid":11185427,"name":"Arts Building, Dhaka University","latitude":23.73427,"longitude":90.3928,"featureClass":"S","featureCode":"UNIV","countryCode":"BD","timezone":"Asia\/Dhaka"},{"geonameid":11186075,"name":"Institute of Diploma Engineers (IDEB)","latitude":23.73709,"longitude":90.40659,"featureClass":"S","featureCode":"UNIV","countryCode":"BD","timezone":"Asia\/Dhaka"},{"geonameid":11186082,"name":"Southern University","latitude":22.36672,"longitude":91.80003,"featureClass":"S","featureCode":"UNIV","countryCode":"BD","timezone":"Asia\/Dhaka"},{"geonameid":11186083,"name":"Khulna Polytechnic Institute","latitude":22.84532,"longitude":89.54415,"featureClass":"S","featureCode":"UNIV","countryCode":"BD","timezone":"Asia\/Dhaka"},{"geonameid":11186086,"name":"Bogra Polytechnic Institute","latitude":24.82277,"longitude":89.37784,"featureClass":"S","featureCode":"UNIV","countryCode":"BD","timezone":"Asia\/Dhaka"},{"geonameid":11203632,"name":"Institute of Diploma Engineers Chittagong","latitude":22.36362,"longitude":91.80319,"featureClass":"S","featureCode":"UNIV","countryCode":"BD","timezone":"Asia\/Dhaka"},{"geonameid":11203633,"name":"Rural Development Academy Bogra","latitude":24.70497,"longitude":89.39321,"featureClass":"S","featureCode":"UNIV","countryCode":"BD","timezone":"Asia\/Dhaka"},{"geonameid":6696504,"name":"Universit\u00e9 Libre De Bruxelles \/ Campus Solbosch","latitude":50.81174,"longitude":4.3811,"featureClass":"S","featureCode":"UNIV","countryCode":"BE","timezone":"Europe\/Brussels"},{"geonameid":6696505,"name":"Universit\u00e9 Libre De Bruxelles \/ Campus De La Plaine","latitude":50.82378,"longitude":4.3981,"featureClass":"S","featureCode":"UNIV","countryCode":"BE","timezone":"Europe\/Brussels"},{"geonameid":6696506,"name":"Vrije Universiteit Brussel \/ Campus Etterbeek","latitude":50.82186,"longitude":4.39338,"featureClass":"S","featureCode":"UNIV","countryCode":"BE","timezone":"Europe\/Brussels"},{"geonameid":6696511,"name":"Hogeschool-Universiteit Brussel \/ Campus Koningsstraat","latitude":50.85835,"longitude":4.36803,"featureClass":"S","featureCode":"UNIV","countryCode":"BE","timezone":"Europe\/Brussels"},{"geonameid":6696520,"name":"Katholieke Universiteit Leuven \/ Letteren","latitude":50.87672,"longitude":4.70921,"featureClass":"S","featureCode":"UNIV","countryCode":"BE","timezone":"Europe\/Brussels"},{"geonameid":6696521,"name":"Katholieke Universiteit Leuven \/ Sociale Wetenschappen","latitude":50.87301,"longitude":4.70226,"featureClass":"S","featureCode":"UNIV","countryCode":"BE","timezone":"Europe\/Brussels"},{"geonameid":6696522,"name":"Katholieke Universiteit Leuven \/ Biologie","latitude":50.87604,"longitude":4.70125,"featureClass":"S","featureCode":"UNIV","countryCode":"BE","timezone":"Europe\/Brussels"},{"geonameid":6696523,"name":"Katholieke Universiteit Leuven \/ Godsgeleerdheid","latitude":50.8781,"longitude":4.70397,"featureClass":"S","featureCode":"UNIV","countryCode":"BE","timezone":"Europe\/Brussels"},{"geonameid":6696524,"name":"Katholieke Universiteit Leuven \/ Psychologie & Pedagogische Wetenschappen","latitude":50.87603,"longitude":4.70822,"featureClass":"S","featureCode":"UNIV","countryCode":"BE","timezone":"Europe\/Brussels"},{"geonameid":6696525,"name":"Katholieke Universiteit Leuven \/ Geneeskunde","latitude":50.88139,"longitude":4.68174,"featureClass":"S","featureCode":"UNIV","countryCode":"BE","timezone":"Europe\/Brussels"},{"geonameid":6696526,"name":"Katholieke Universiteit Leuven \/ Economische Wetenschappen","latitude":50.87335,"longitude":4.70013,"featureClass":"S","featureCode":"UNIV","countryCode":"BE","timezone":"Europe\/Brussels"},{"geonameid":6696527,"name":"Katholieke Universiteit Leuven \/ Algemeen","latitude":50.87811,"longitude":4.69968,"featureClass":"S","featureCode":"UNIV","countryCode":"BE","timezone":"Europe\/Brussels"},{"geonameid":6696529,"name":"Katholieke Universiteit Leuven \/ Wetenschappen","latitude":50.86446,"longitude":4.68026,"featureClass":"S","featureCode":"UNIV","countryCode":"BE","timezone":"Europe\/Brussels"},{"geonameid":6696530,"name":"Katholieke Universiteit Leuven \/ Bewegings- En Revalidatiewetenschappen","latitude":50.86962,"longitude":4.69502,"featureClass":"S","featureCode":"UNIV","countryCode":"BE","timezone":"Europe\/Brussels"},{"geonameid":6696552,"name":"Universit\u00e9 Li\u00e8ge \/ Sart - Tilman","latitude":50.57791,"longitude":5.576,"featureClass":"S","featureCode":"UNIV","countryCode":"BE","timezone":"Europe\/Brussels"},{"geonameid":6696553,"name":"Universit\u00e9 Li\u00e8ge \/ Centre Ville","latitude":50.64119,"longitude":5.57552,"featureClass":"S","featureCode":"UNIV","countryCode":"BE","timezone":"Europe\/Brussels"},{"geonameid":6696554,"name":"Hec-Ecole De Gestion De L'Universit\u00e9 De Li\u00e8ge","latitude":50.63522,"longitude":5.56323,"featureClass":"S","featureCode":"UNIV","countryCode":"BE","timezone":"Europe\/Brussels"},{"geonameid":6696578,"name":"Facult\u00e9 Universitaire De Namur \/ Algemeen","latitude":50.46638,"longitude":4.86134,"featureClass":"S","featureCode":"UNIV","countryCode":"BE","timezone":"Europe\/Brussels"},{"geonameid":6696579,"name":"Facult\u00e9 Universitaire De Gembloux \/ Algemeen","latitude":50.53371,"longitude":4.71356,"featureClass":"S","featureCode":"UNIV","countryCode":"BE","timezone":"Europe\/Brussels"},{"geonameid":6696587,"name":"Universit\u00e9 De Mons - Hainaut \/ Site Charleroi","latitude":50.41389,"longitude":4.4508,"featureClass":"S","featureCode":"UNIV","countryCode":"BE","timezone":"Europe\/Brussels"},{"geonameid":6696588,"name":"Facult\u00e9 Universitaire Catholiques De Mons \/ Site Charleroi","latitude":50.40811,"longitude":4.4376,"featureClass":"S","featureCode":"UNIV","countryCode":"BE","timezone":"Europe\/Brussels"},{"geonameid":6696589,"name":"Universit\u00e9 Libre De Bruxelles \/ Campus De Parentville - Charleroi","latitude":50.38541,"longitude":4.47725,"featureClass":"S","featureCode":"UNIV","countryCode":"BE","timezone":"Europe\/Brussels"},{"geonameid":6696596,"name":"Universit\u00e9 Li\u00e8ge \/ Campus Arlon","latitude":49.67847,"longitude":5.82391,"featureClass":"S","featureCode":"UNIV","countryCode":"BE","timezone":"Europe\/Brussels"},{"geonameid":6696604,"name":"Facult\u00e9 Polytechnique De Mons \/ Site Dolez","latitude":50.45185,"longitude":3.95946,"featureClass":"S","featureCode":"UNIV","countryCode":"BE","timezone":"Europe\/Brussels"},{"geonameid":6696605,"name":"UCLouvain FUCaM Mons","latitude":50.45267,"longitude":3.97859,"featureClass":"S","featureCode":"UNIV","countryCode":"BE","timezone":"Europe\/Brussels"},{"geonameid":6696606,"name":"Universit\u00e9 De Mons - Hainaut \/ Site Du Parc","latitude":50.45896,"longitude":3.95042,"featureClass":"S","featureCode":"UNIV","countryCode":"BE","timezone":"Europe\/Brussels"},{"geonameid":6696607,"name":"Universit\u00e9 De Mons - Hainaut \/ Site Warocqu\u00e9","latitude":50.45827,"longitude":3.94978,"featureClass":"S","featureCode":"UNIV","countryCode":"BE","timezone":"Europe\/Brussels"},{"geonameid":6696608,"name":"Facult\u00e9 Polytechnique De Mons \/ Site Houdain","latitude":50.45201,"longitude":3.95338,"featureClass":"S","featureCode":"UNIV","countryCode":"BE","timezone":"Europe\/Brussels"},{"geonameid":6696609,"name":"Facult\u00e9 Polytechnique De Mons \/ Site Epargne","latitude":50.44759,"longitude":3.95651,"featureClass":"S","featureCode":"UNIV","countryCode":"BE","timezone":"Europe\/Brussels"},{"geonameid":6696610,"name":"Facult\u00e9 Polytechnique De Mons \/ Site Joncqouis","latitude":50.44609,"longitude":3.95708,"featureClass":"S","featureCode":"UNIV","countryCode":"BE","timezone":"Europe\/Brussels"},{"geonameid":6696611,"name":"Universit\u00e9 Libre De Bruxelles \/ Campus De Nivelles","latitude":50.60018,"longitude":4.32443,"featureClass":"S","featureCode":"UNIV","countryCode":"BE","timezone":"Europe\/Brussels"},{"geonameid":6696612,"name":"Koninklijke Militaire Universiteit - Universit\u00e9 Royale Militaire \/ Algemeen","latitude":50.84348,"longitude":4.39154,"featureClass":"S","featureCode":"UNIV","countryCode":"BE","timezone":"Europe\/Brussels"},{"geonameid":6696613,"name":"Faculteit Voor Protestantse Godsgeleerdheid - Facult\u00e9 Universitaire De Th\u00e9ologie Protestante \/ Algemeen","latitude":50.83527,"longitude":4.40462,"featureClass":"S","featureCode":"UNIV","countryCode":"BE","timezone":"Europe\/Brussels"},{"geonameid":6696614,"name":"Saint-Louis University, Brussels (UCLouvain)","latitude":50.85358,"longitude":4.36162,"featureClass":"S","featureCode":"UNIV","countryCode":"BE","timezone":"Europe\/Brussels"},{"geonameid":6696615,"name":"Universiteit Antwerpen \/ Prinsstraat","latitude":51.22236,"longitude":4.41008,"featureClass":"S","featureCode":"UNIV","countryCode":"BE","timezone":"Europe\/Brussels"},{"geonameid":6696616,"name":"Universiteit Antwerpen \/ Groenenborger","latitude":51.17761,"longitude":4.41529,"featureClass":"S","featureCode":"UNIV","countryCode":"BE","timezone":"Europe\/Brussels"},{"geonameid":6696617,"name":"Universiteit Antwerpen \/ Middelheim","latitude":51.1849,"longitude":4.4197,"featureClass":"S","featureCode":"UNIV","countryCode":"BE","timezone":"Europe\/Brussels"},{"geonameid":6696618,"name":"Universiteit Antwerpen \/ Drie Eiken","latitude":51.16341,"longitude":4.40091,"featureClass":"S","featureCode":"UNIV","countryCode":"BE","timezone":"Europe\/Brussels"},{"geonameid":6696620,"name":"UCLouvain - University of Louvain","latitude":50.85105,"longitude":4.45779,"featureClass":"S","featureCode":"UNIV","countryCode":"BE","timezone":"Europe\/Brussels"},{"geonameid":6696621,"name":"Universit\u00e9 Catholique De Louvain \/ Maison Georges Lema\u00eetre","latitude":50.40801,"longitude":4.44833,"featureClass":"S","featureCode":"UNIV","countryCode":"BE","timezone":"Europe\/Brussels"},{"geonameid":6696622,"name":"UCLouvain - University of Louvain","latitude":50.67009,"longitude":4.6157,"featureClass":"S","featureCode":"UNIV","countryCode":"BE","timezone":"Europe\/Brussels"},{"geonameid":6696672,"name":"Katholieke Universiteit Leuven \/ Campus Kortrijk","latitude":50.80528,"longitude":3.29038,"featureClass":"S","featureCode":"UNIV","countryCode":"BE","timezone":"Europe\/Brussels"},{"geonameid":6696673,"name":"Universiteit Gent \/ Fac. Bio-Ingenieurswetenschappen","latitude":51.0534,"longitude":3.70872,"featureClass":"S","featureCode":"UNIV","countryCode":"BE","timezone":"Europe\/Brussels"},{"geonameid":6696674,"name":"Universiteit Gent \/ Fac. Ingenieurswetenschappen","latitude":51.04608,"longitude":3.72497,"featureClass":"S","featureCode":"UNIV","countryCode":"BE","timezone":"Europe\/Brussels"},{"geonameid":6696675,"name":"Universiteit Gent \/ Rectoraat","latitude":51.04738,"longitude":3.72752,"featureClass":"S","featureCode":"UNIV","countryCode":"BE","timezone":"Europe\/Brussels"},{"geonameid":6696676,"name":"Universiteit Gent \/ Fac. Economie En Bedrijfskunde","latitude":51.0425,"longitude":3.72733,"featureClass":"S","featureCode":"UNIV","countryCode":"BE","timezone":"Europe\/Brussels"},{"geonameid":6696677,"name":"Universiteit Gent \/ Fac. Letteren En Wijsbegeerte","latitude":51.04413,"longitude":3.7254,"featureClass":"S","featureCode":"UNIV","countryCode":"BE","timezone":"Europe\/Brussels"},{"geonameid":6696678,"name":"Universiteit Gent \/ Fac. Wetenschappen","latitude":51.03673,"longitude":3.72203,"featureClass":"S","featureCode":"UNIV","countryCode":"BE","timezone":"Europe\/Brussels"},{"geonameid":6696679,"name":"Universiteit Gent \/ Fac. Geneeskunde En Gezondheidswetenschappen","latitude":51.02717,"longitude":3.72233,"featureClass":"S","featureCode":"UNIV","countryCode":"BE","timezone":"Europe\/Brussels"},{"geonameid":6696680,"name":"Universiteit Gent \/ Fac. Psychologie En Pedagogische Wetenschappen","latitude":51.05001,"longitude":3.70203,"featureClass":"S","featureCode":"UNIV","countryCode":"BE","timezone":"Europe\/Brussels"},{"geonameid":6696681,"name":"Universiteit Gent \/ Fac. Farmaceutische Wetenschappen","latitude":51.02736,"longitude":3.73055,"featureClass":"S","featureCode":"UNIV","countryCode":"BE","timezone":"Europe\/Brussels"},{"geonameid":6696682,"name":"Universiteit Gent \/ Fac. Rechtsgeleerdheid","latitude":51.05113,"longitude":3.72482,"featureClass":"S","featureCode":"UNIV","countryCode":"BE","timezone":"Europe\/Brussels"},{"geonameid":6696683,"name":"Universiteit Gent \/ Fac. Diergeneeskunde","latitude":50.99681,"longitude":3.76829,"featureClass":"S","featureCode":"UNIV","countryCode":"BE","timezone":"Europe\/Brussels"},{"geonameid":7284822,"name":"Institut de Recherches microbiologiques Jean-Marie Wiame (IRMW) - Campus du CERIA","latitude":50.81584,"longitude":4.29528,"featureClass":"S","featureCode":"UNIV","countryCode":"BE","timezone":"Europe\/Brussels"},{"geonameid":9887278,"name":"Universit\u00e9 libre de Bruxelles (ULB)","latitude":50.81305,"longitude":4.3818,"featureClass":"S","featureCode":"UNIV","countryCode":"BE","timezone":"Europe\/Brussels"},{"geonameid":12110836,"name":"Marie Haps Faculty of Translation and Interpreting - UCLouvain Saint-Louis Bruxelles","latitude":50.83899,"longitude":4.37207,"featureClass":"S","featureCode":"UNIV","countryCode":"BE","timezone":"Europe\/Brussels"},{"geonameid":7732742,"name":"International Institute for Water and Environmental Engineering","latitude":12.3791,"longitude":-1.50372,"featureClass":"S","featureCode":"UNIV","countryCode":"BF","timezone":"Africa\/Ouagadougou"},{"geonameid":10376456,"name":"University of Ouagadougou","latitude":12.37722,"longitude":-1.50083,"featureClass":"S","featureCode":"UNIV","countryCode":"BF","timezone":"Africa\/Ouagadougou"},{"geonameid":10376586,"name":"International Institute D'ing\u00e9nierie De L'eau Et De L'environnement","latitude":12.37911,"longitude":-1.50386,"featureClass":"S","featureCode":"UNIV","countryCode":"BF","timezone":"Africa\/Ouagadougou"},{"geonameid":6956448,"name":"\u0412\u0422\u0423 5-\u0442\u0438 \u043a\u043e\u0440\u043f\u0443\u0441","latitude":43.08063,"longitude":25.63484,"featureClass":"S","featureCode":"UNIV","countryCode":"BG","timezone":"Europe\/Sofia"},{"geonameid":6956450,"name":"\u0412\u0422\u0423","latitude":43.07838,"longitude":25.64958,"featureClass":"S","featureCode":"UNIV","countryCode":"BG","timezone":"Europe\/Sofia"},{"geonameid":6956524,"name":"\u041d\u0412\u0423","latitude":43.08397,"longitude":25.60287,"featureClass":"S","featureCode":"UNIV","countryCode":"BG","timezone":"Europe\/Sofia"},{"geonameid":6956544,"name":"\u0412\u0422\u0423 \u0444. \"\u0418\u043e\u0431\u0440\u0430\u0437\u0438\u0442\u0435\u043b\u043d\u043e \u0438\u0437\u043a\u0443\u0441\u0442\u0432\u043e\"","latitude":43.08306,"longitude":25.63256,"featureClass":"S","featureCode":"UNIV","countryCode":"BG","timezone":"Europe\/Sofia"},{"geonameid":6956557,"name":"\u0412\u0422\u0423 3 \u043a\u043e\u0440\u043f\u0443\u0441","latitude":43.07547,"longitude":25.60965,"featureClass":"S","featureCode":"UNIV","countryCode":"BG","timezone":"Europe\/Sofia"},{"geonameid":10098983,"name":"Sofia University","latitude":42.69359,"longitude":23.33485,"featureClass":"S","featureCode":"UNIV","countryCode":"BG","timezone":"Europe\/Sofia"},{"geonameid":11612466,"name":"Plovdiv University \"Paisii Hilendarski\"","latitude":42.13825,"longitude":24.7492,"featureClass":"S","featureCode":"UNIV","countryCode":"BG","timezone":"Europe\/Sofia"},{"geonameid":9173181,"name":"University of Ngozi","latitude":-2.90417,"longitude":29.83115,"featureClass":"S","featureCode":"UNIV","countryCode":"BI","timezone":"Africa\/Bujumbura"},{"geonameid":9178141,"name":"University of Burundi","latitude":-3.37893,"longitude":29.38383,"featureClass":"S","featureCode":"UNIV","countryCode":"BI","timezone":"Africa\/Bujumbura"},{"geonameid":9178671,"name":"Universit' du Burundi","latitude":-3.37886,"longitude":29.38384,"featureClass":"S","featureCode":"UNIV","countryCode":"BI","timezone":"Africa\/Bujumbura"},{"geonameid":11073179,"name":"Kiriri Campus of University of Burundi","latitude":-3.39463,"longitude":29.39537,"featureClass":"S","featureCode":"UNIV","countryCode":"BI","timezone":"Africa\/Bujumbura"},{"geonameid":10376585,"name":"Universit\u00e9 d'Abomey-Calavi","latitude":6.44105,"longitude":2.35238,"featureClass":"S","featureCode":"UNIV","countryCode":"BJ","timezone":"Africa\/Porto-Novo"},{"geonameid":11593819,"name":"Universiti Brunei Darussalam","latitude":4.97272,"longitude":114.89387,"featureClass":"S","featureCode":"UNIV","countryCode":"BN","timezone":"Asia\/Brunei"},{"geonameid":11611006,"name":"Universiti Teknologi Brunei","latitude":4.97726,"longitude":114.89914,"featureClass":"S","featureCode":"UNIV","countryCode":"BN","timezone":"Asia\/Brunei"},{"geonameid":7290282,"name":"Universidade Federal do Parana","latitude":-25.42849,"longitude":-49.26649,"featureClass":"S","featureCode":"UNIV","countryCode":"BR","timezone":"America\/Sao_Paulo"},{"geonameid":7290283,"name":"ISAE-Instituto Superior de Administracao e Economia do Mercosul","latitude":-25.43741,"longitude":-49.26999,"featureClass":"S","featureCode":"UNIV","countryCode":"BR","timezone":"America\/Sao_Paulo"},{"geonameid":7303210,"name":"Universidade Federal de Santa Maria","latitude":-29.71735,"longitude":-53.71705,"featureClass":"S","featureCode":"UNIV","countryCode":"BR","timezone":"America\/Sao_Paulo"},{"geonameid":7798438,"name":"Federal University of Rio de Janeiro","latitude":-22.86285,"longitude":-43.22884,"featureClass":"S","featureCode":"UNIV","countryCode":"BR","timezone":"America\/Sao_Paulo"},{"geonameid":7874514,"name":"Santa Catarina Federal University","latitude":-27.60065,"longitude":-48.5206,"featureClass":"S","featureCode":"UNIV","countryCode":"BR","timezone":"America\/Sao_Paulo"},{"geonameid":8050896,"name":"Computer Science Institute - Federal Fluminense University","latitude":-22.9067,"longitude":-43.13304,"featureClass":"S","featureCode":"UNIV","countryCode":"BR","timezone":"America\/Sao_Paulo"},{"geonameid":8436938,"name":"Departamento de Inform\u00e1tica e Estat\u00edstica da UFSC","latitude":-27.6006,"longitude":-48.51859,"featureClass":"S","featureCode":"UNIV","countryCode":"BR","timezone":"America\/Sao_Paulo"},{"geonameid":8659303,"name":"Universidade Federal de Mato Grosso do Sul","latitude":-20.50365,"longitude":-54.614,"featureClass":"S","featureCode":"UNIV","countryCode":"BR","timezone":"America\/Campo_Grande"},{"geonameid":9253844,"name":"Federal University of Acre - Rio Branco","latitude":-9.97544,"longitude":-67.83122,"featureClass":"S","featureCode":"UNIV","countryCode":"BR","timezone":"America\/Rio_Branco"},{"geonameid":9257717,"name":"State University of Campinas (UNICAMP)","latitude":-22.8164,"longitude":-47.06879,"featureClass":"S","featureCode":"UNIV","countryCode":"BR","timezone":"America\/Sao_Paulo"},{"geonameid":9389378,"name":"UFPR - Universidade Federal do Parana - Campus III - Centro Politecnico","latitude":-25.4463,"longitude":-49.23321,"featureClass":"S","featureCode":"UNIV","countryCode":"BR","timezone":"America\/Sao_Paulo"},{"geonameid":9782143,"name":"Unipampa - Campus Cacapava do Sul","latitude":-30.49713,"longitude":-53.48119,"featureClass":"S","featureCode":"UNIV","countryCode":"BR","timezone":"America\/Sao_Paulo"},{"geonameid":9782144,"name":"URCAMP - Universidade da Regiao de Campanha","latitude":-30.51288,"longitude":-53.49303,"featureClass":"S","featureCode":"UNIV","countryCode":"BR","timezone":"America\/Sao_Paulo"},{"geonameid":10177144,"name":"UFPEL - Campus Anglo","latitude":-31.78181,"longitude":-52.3232,"featureClass":"S","featureCode":"UNIV","countryCode":"BR","timezone":"America\/Sao_Paulo"},{"geonameid":10345291,"name":"Funda\u00e7\u00e3o Educacional do Munic\u00edpio de Assis","latitude":-22.64404,"longitude":-50.41985,"featureClass":"S","featureCode":"UNIV","countryCode":"BR","timezone":"America\/Sao_Paulo"},{"geonameid":10345293,"name":"UNESP Assis - Faculdade de Ci\u00eancias e Letras de Assis (FCLA)","latitude":-22.64735,"longitude":-50.43779,"featureClass":"S","featureCode":"UNIV","countryCode":"BR","timezone":"America\/Sao_Paulo"},{"geonameid":11257247,"name":"Universidade de Uberaba","latitude":-19.75701,"longitude":-47.96423,"featureClass":"S","featureCode":"UNIV","countryCode":"BR","timezone":"America\/Sao_Paulo"},{"geonameid":11428728,"name":"Engineering School of Lorena, University of S\u00e3o Paulo","latitude":-22.69776,"longitude":-45.11842,"featureClass":"S","featureCode":"UNIV","countryCode":"BR","timezone":"America\/Sao_Paulo"},{"geonameid":11548974,"name":"Universidade Federal de Vi\u00e7osa","latitude":-19.21742,"longitude":-46.22169,"featureClass":"S","featureCode":"UNIV","countryCode":"BR","timezone":"America\/Sao_Paulo"},{"geonameid":11608913,"name":"Pontifical Catholic University of Rio de Janeiro","latitude":-22.94128,"longitude":-43.24151,"featureClass":"S","featureCode":"UNIV","countryCode":"BR","timezone":"America\/Sao_Paulo"},{"geonameid":11608941,"name":"Universidade de Bras\u00edlia","latitude":-15.76181,"longitude":-47.87078,"featureClass":"S","featureCode":"UNIV","countryCode":"BR","timezone":"America\/Sao_Paulo"},{"geonameid":11609079,"name":"University of Pernambuco","latitude":-8.56572,"longitude":-39.94731,"featureClass":"S","featureCode":"UNIV","countryCode":"BR","timezone":"America\/Recife"},{"geonameid":11609396,"name":"Federal University of Minas Gerais","latitude":-19.8719,"longitude":-43.96625,"featureClass":"S","featureCode":"UNIV","countryCode":"BR","timezone":"America\/Sao_Paulo"},{"geonameid":11609803,"name":"Federal University of Rio Grande do Sul","latitude":-30.03384,"longitude":-51.21857,"featureClass":"S","featureCode":"UNIV","countryCode":"BR","timezone":"America\/Sao_Paulo"},{"geonameid":11609874,"name":"University of Pernambuco","latitude":-8.0441,"longitude":-34.8861,"featureClass":"S","featureCode":"UNIV","countryCode":"BR","timezone":"America\/Recife"},{"geonameid":12023695,"name":"Educational Foundation of Divin\u00f3polis","latitude":-20.17134,"longitude":-44.9133,"featureClass":"S","featureCode":"UNIV","countryCode":"BR","timezone":"America\/Sao_Paulo"},{"geonameid":12069898,"name":"Molecular Sciences Course","latitude":-23.55759,"longitude":-46.72739,"featureClass":"S","featureCode":"UNIV","countryCode":"BR","timezone":"America\/Sao_Paulo"},{"geonameid":12111209,"name":"Biotechnology Center UFRGS","latitude":-30.06823,"longitude":-51.1193,"featureClass":"S","featureCode":"UNIV","countryCode":"BR","timezone":"America\/Sao_Paulo"},{"geonameid":12261474,"name":"Laboratory of Immunology Applied to Animal Health","latitude":-30.06839,"longitude":-51.11931,"featureClass":"S","featureCode":"UNIV","countryCode":"BR","timezone":"America\/Sao_Paulo"},{"geonameid":11072149,"name":"Sherubtse College","latitude":27.2864,"longitude":91.52358,"featureClass":"S","featureCode":"UNIV","countryCode":"BT","timezone":"Asia\/Thimphu"},{"geonameid":11072152,"name":"College of Science and Technology","latitude":26.85015,"longitude":89.39397,"featureClass":"S","featureCode":"UNIV","countryCode":"BT","timezone":"Asia\/Thimphu"},{"geonameid":11072214,"name":"Gaeddu College of Business Studies","latitude":26.92256,"longitude":89.52166,"featureClass":"S","featureCode":"UNIV","countryCode":"BT","timezone":"Asia\/Thimphu"},{"geonameid":11073616,"name":"Institute of Language and Culture Studies (ILCS)","latitude":27.43858,"longitude":90.4819,"featureClass":"S","featureCode":"UNIV","countryCode":"BT","timezone":"Asia\/Thimphu"},{"geonameid":11073625,"name":"Royal Institute of Health Sciences (RIHS)","latitude":27.46216,"longitude":89.63967,"featureClass":"S","featureCode":"UNIV","countryCode":"BT","timezone":"Asia\/Thimphu"},{"geonameid":11073628,"name":"National Institute of Traditional Medicine","latitude":27.48017,"longitude":89.62938,"featureClass":"S","featureCode":"UNIV","countryCode":"BT","timezone":"Asia\/Thimphu"},{"geonameid":11496430,"name":"Tango University of Buddhist Studies","latitude":27.59297,"longitude":89.6389,"featureClass":"S","featureCode":"UNIV","countryCode":"BT","timezone":"Asia\/Thimphu"},{"geonameid":11523680,"name":"Royal University of Bhutan","latitude":27.47879,"longitude":89.62819,"featureClass":"S","featureCode":"UNIV","countryCode":"BT","timezone":"Asia\/Thimphu"},{"geonameid":11523686,"name":"Thimphu Institute of Zorig Chusum","latitude":27.48285,"longitude":89.63153,"featureClass":"S","featureCode":"UNIV","countryCode":"BT","timezone":"Asia\/Thimphu"},{"geonameid":11612274,"name":"Belarusian State University","latitude":53.89304,"longitude":27.54337,"featureClass":"S","featureCode":"UNIV","countryCode":"BY","timezone":"Europe\/Minsk"},{"geonameid":6269558,"name":"Queen's University","latitude":44.22558,"longitude":-76.49497,"featureClass":"S","featureCode":"UNIV","countryCode":"CA","timezone":"America\/Toronto"},{"geonameid":6533381,"name":"University of Windsor","latitude":42.3049,"longitude":-83.06548,"featureClass":"S","featureCode":"UNIV","countryCode":"CA","timezone":"America\/Toronto"},{"geonameid":6559510,"name":"Carleton University","latitude":45.38649,"longitude":-75.69636,"featureClass":"S","featureCode":"UNIV","countryCode":"CA","timezone":"America\/Toronto"},{"geonameid":6943336,"name":"University of British Columbia Vancouver","latitude":49.26114,"longitude":-123.24686,"featureClass":"S","featureCode":"UNIV","countryCode":"CA","timezone":"America\/Vancouver"},{"geonameid":6947146,"name":"University of Alberta","latitude":53.52641,"longitude":-113.52572,"featureClass":"S","featureCode":"UNIV","countryCode":"CA","timezone":"America\/Edmonton"},{"geonameid":6948913,"name":"McMaster University","latitude":43.25877,"longitude":-79.91927,"featureClass":"S","featureCode":"UNIV","countryCode":"CA","timezone":"America\/Toronto"},{"geonameid":7626283,"name":"University of Ottawa","latitude":45.42389,"longitude":-75.68348,"featureClass":"S","featureCode":"UNIV","countryCode":"CA","timezone":"America\/Toronto"},{"geonameid":7668969,"name":"University of British Columbia Okanagan","latitude":49.9395,"longitude":-119.39632,"featureClass":"S","featureCode":"UNIV","countryCode":"CA","timezone":"America\/Vancouver"},{"geonameid":7670985,"name":"Universit\u00e9 du Qu\u00e9bec \u00e0 Montr\u00e9al","latitude":45.51227,"longitude":-73.56055,"featureClass":"S","featureCode":"UNIV","countryCode":"CA","timezone":"America\/Toronto"},{"geonameid":7671013,"name":"University of Toronto","latitude":43.66219,"longitude":-79.3942,"featureClass":"S","featureCode":"UNIV","countryCode":"CA","timezone":"America\/Toronto"},{"geonameid":7870905,"name":"Mount Royal University","latitude":51.01224,"longitude":-114.13301,"featureClass":"S","featureCode":"UNIV","countryCode":"CA","timezone":"America\/Edmonton"},{"geonameid":8468667,"name":"Canadian University College","latitude":52.48853,"longitude":-113.73832,"featureClass":"S","featureCode":"UNIV","countryCode":"CA","timezone":"America\/Edmonton"},{"geonameid":8555934,"name":"University of Lethbridge","latitude":49.6769,"longitude":-112.86289,"featureClass":"S","featureCode":"UNIV","countryCode":"CA","timezone":"America\/Edmonton"},{"geonameid":11467850,"name":"Vancouver Island University","latitude":49.15749,"longitude":-123.96743,"featureClass":"S","featureCode":"UNIV","countryCode":"CA","timezone":"America\/Vancouver"},{"geonameid":11468317,"name":"Dalhousie University","latitude":44.63667,"longitude":-63.59073,"featureClass":"S","featureCode":"UNIV","countryCode":"CA","timezone":"America\/Halifax"},{"geonameid":11494828,"name":"Royal Roads University","latitude":48.43526,"longitude":-123.47301,"featureClass":"S","featureCode":"UNIV","countryCode":"CA","timezone":"America\/Vancouver"},{"geonameid":11550392,"name":"Saint Mary's University","latitude":44.63139,"longitude":-63.5817,"featureClass":"S","featureCode":"UNIV","countryCode":"CA","timezone":"America\/Halifax"},{"geonameid":11550730,"name":"University of New Brunswick Saint John","latitude":45.30586,"longitude":-66.08474,"featureClass":"S","featureCode":"UNIV","countryCode":"CA","timezone":"America\/Moncton"},{"geonameid":11593060,"name":"University of Northern British Columbia","latitude":53.89134,"longitude":-122.81316,"featureClass":"S","featureCode":"UNIV","countryCode":"CA","timezone":"America\/Vancouver"},{"geonameid":11777722,"name":"Simon Fraser University","latitude":49.27945,"longitude":-122.91856,"featureClass":"S","featureCode":"UNIV","countryCode":"CA","timezone":"America\/Vancouver"},{"geonameid":11791520,"name":"Queen's University","latitude":44.22518,"longitude":-76.49513,"featureClass":"S","featureCode":"UNIV","countryCode":"CA","timezone":"America\/Toronto"},{"geonameid":11810038,"name":"University of Waterloo","latitude":43.47189,"longitude":-80.54446,"featureClass":"S","featureCode":"UNIV","countryCode":"CA","timezone":"America\/Toronto"},{"geonameid":11875760,"name":"Vancouver Island University Cowichan Campus","latitude":48.78408,"longitude":-123.70545,"featureClass":"S","featureCode":"UNIV","countryCode":"CA","timezone":"America\/Vancouver"},{"geonameid":12035614,"name":"Universit\u00e9 Laval","latitude":46.77932,"longitude":-71.26993,"featureClass":"S","featureCode":"UNIV","countryCode":"CA","timezone":"America\/Toronto"},{"geonameid":12059941,"name":"Universit\u00e9 de Montr\u00e9al","latitude":45.50273,"longitude":-73.61472,"featureClass":"S","featureCode":"UNIV","countryCode":"CA","timezone":"America\/Toronto"},{"geonameid":8260079,"name":"University of Kinshasa","latitude":-4.41944,"longitude":15.30972,"featureClass":"S","featureCode":"UNIV","countryCode":"CD","timezone":"Africa\/Kinshasa"},{"geonameid":10376557,"name":"University of Lubumbashi","latitude":-11.61444,"longitude":27.48056,"featureClass":"S","featureCode":"UNIV","countryCode":"CD","timezone":"Africa\/Lubumbashi"},{"geonameid":10377063,"name":"Universit\u00e9 Catholique du Congo","latitude":-4.34113,"longitude":15.32597,"featureClass":"S","featureCode":"UNIV","countryCode":"CD","timezone":"Africa\/Kinshasa"},{"geonameid":10400444,"name":"National Pedagogical University","latitude":-4.40435,"longitude":15.25702,"featureClass":"S","featureCode":"UNIV","countryCode":"CD","timezone":"Africa\/Kinshasa"},{"geonameid":10400445,"name":"Catholic University of Congo","latitude":-4.34113,"longitude":15.32602,"featureClass":"S","featureCode":"UNIV","countryCode":"CD","timezone":"Africa\/Kinshasa"},{"geonameid":10400459,"name":"Universit\u00e9 Catholique de Bukavu","latitude":-2.40406,"longitude":28.83864,"featureClass":"S","featureCode":"UNIV","countryCode":"CD","timezone":"Africa\/Lubumbashi"},{"geonameid":10400505,"name":"Catholic University of Graben","latitude":0.12793,"longitude":29.28363,"featureClass":"S","featureCode":"UNIV","countryCode":"CD","timezone":"Africa\/Lubumbashi"},{"geonameid":10400605,"name":"University of Mbuji Mayi","latitude":-6.11316,"longitude":23.6008,"featureClass":"S","featureCode":"UNIV","countryCode":"CD","timezone":"Africa\/Lubumbashi"},{"geonameid":10626539,"name":"School of Public Health Kinshasa","latitude":-4.41244,"longitude":15.30386,"featureClass":"S","featureCode":"UNIV","countryCode":"CD","timezone":"Africa\/Kinshasa"},{"geonameid":10377051,"name":"Marien Ngouabi University","latitude":-4.27629,"longitude":15.248,"featureClass":"S","featureCode":"UNIV","countryCode":"CG","timezone":"Africa\/Brazzaville"},{"geonameid":6285790,"name":"Ecole Polytechnique F\u00e9d\u00e9rale de Lausanne","latitude":46.51939,"longitude":6.56673,"featureClass":"S","featureCode":"UNIV","countryCode":"CH","timezone":"Europe\/Zurich"},{"geonameid":6620493,"name":"Universit\u00e9 de Lausanne","latitude":46.52376,"longitude":6.58409,"featureClass":"S","featureCode":"UNIV","countryCode":"CH","timezone":"Europe\/Zurich"},{"geonameid":6691668,"name":"FHNW Fachhochschule Nordwestschweiz, Muttenz","latitude":47.53378,"longitude":7.63856,"featureClass":"S","featureCode":"UNIV","countryCode":"CH","timezone":"Europe\/Zurich"},{"geonameid":6930308,"name":"Universit\u00e4t Basel","latitude":47.55832,"longitude":7.58403,"featureClass":"S","featureCode":"UNIV","countryCode":"CH","timezone":"Europe\/Zurich"},{"geonameid":6930856,"name":"Eidgen\u00f6ssische Technische Hochschule Z\u00fcrich","latitude":47.3763,"longitude":8.54805,"featureClass":"S","featureCode":"UNIV","countryCode":"CH","timezone":"Europe\/Zurich"},{"geonameid":6930857,"name":"University of Z\u00fcrich","latitude":47.37478,"longitude":8.54858,"featureClass":"S","featureCode":"UNIV","countryCode":"CH","timezone":"Europe\/Zurich"},{"geonameid":6930859,"name":"Universit of Z\u00fcrich\/ Irchel Campus","latitude":47.39748,"longitude":8.54899,"featureClass":"S","featureCode":"UNIV","countryCode":"CH","timezone":"Europe\/Zurich"},{"geonameid":7733295,"name":"University Basel - Biomedicine Department","latitude":47.56634,"longitude":7.60196,"featureClass":"S","featureCode":"UNIV","countryCode":"CH","timezone":"Europe\/Zurich"},{"geonameid":7839941,"name":"ETH Department of Biosystems Science and Engineering","latitude":47.56639,"longitude":7.60247,"featureClass":"S","featureCode":"UNIV","countryCode":"CH","timezone":"Europe\/Zurich"},{"geonameid":8081312,"name":"Scuola Universitaria Professionale della Svizzera Italiana - SUPSI - DTI, DSAN","latitude":46.02394,"longitude":8.91741,"featureClass":"S","featureCode":"UNIV","countryCode":"CH","timezone":"Europe\/Zurich"},{"geonameid":8285536,"name":"Centre Universitaire d'Informatique","latitude":46.17663,"longitude":6.13987,"featureClass":"S","featureCode":"UNIV","countryCode":"CH","timezone":"Europe\/Zurich"},{"geonameid":8285537,"name":"Uni Mail","latitude":46.19483,"longitude":6.14007,"featureClass":"S","featureCode":"UNIV","countryCode":"CH","timezone":"Europe\/Zurich"},{"geonameid":8285538,"name":"Uni Bastion","latitude":46.199,"longitude":6.14452,"featureClass":"S","featureCode":"UNIV","countryCode":"CH","timezone":"Europe\/Zurich"},{"geonameid":8285539,"name":"Uni Dufour","latitude":46.19959,"longitude":6.14224,"featureClass":"S","featureCode":"UNIV","countryCode":"CH","timezone":"Europe\/Zurich"},{"geonameid":8285540,"name":"University of Geneva","latitude":46.19954,"longitude":6.14239,"featureClass":"S","featureCode":"UNIV","countryCode":"CH","timezone":"Europe\/Zurich"},{"geonameid":8285541,"name":"Sciences III","latitude":46.19815,"longitude":6.13322,"featureClass":"S","featureCode":"UNIV","countryCode":"CH","timezone":"Europe\/Zurich"},{"geonameid":8285542,"name":"Sciences II","latitude":46.19795,"longitude":6.13268,"featureClass":"S","featureCode":"UNIV","countryCode":"CH","timezone":"Europe\/Zurich"},{"geonameid":8285543,"name":"Sciences","latitude":46.19708,"longitude":6.13408,"featureClass":"S","featureCode":"UNIV","countryCode":"CH","timezone":"Europe\/Zurich"},{"geonameid":8285544,"name":"Centre m\u00e9dical Universitaire (CMU)","latitude":46.19377,"longitude":6.15184,"featureClass":"S","featureCode":"UNIV","countryCode":"CH","timezone":"Europe\/Zurich"},{"geonameid":8335382,"name":"Haute Ecole de Gestion","latitude":46.17486,"longitude":6.13988,"featureClass":"S","featureCode":"UNIV","countryCode":"CH","timezone":"Europe\/Zurich"},{"geonameid":8335383,"name":"HEG building F","latitude":46.17498,"longitude":6.14004,"featureClass":"S","featureCode":"UNIV","countryCode":"CH","timezone":"Europe\/Zurich"},{"geonameid":8335384,"name":"Battelle building D","latitude":46.17609,"longitude":6.14054,"featureClass":"S","featureCode":"UNIV","countryCode":"CH","timezone":"Europe\/Zurich"},{"geonameid":8335385,"name":"Battelle building A","latitude":46.17674,"longitude":6.13972,"featureClass":"S","featureCode":"UNIV","countryCode":"CH","timezone":"Europe\/Zurich"},{"geonameid":8335386,"name":"HEG building C","latitude":46.17529,"longitude":6.13921,"featureClass":"S","featureCode":"UNIV","countryCode":"CH","timezone":"Europe\/Zurich"},{"geonameid":11073584,"name":"Universit\u00e9 Felix Houphouet Boigny","latitude":5.34519,"longitude":-3.98662,"featureClass":"S","featureCode":"UNIV","countryCode":"CI","timezone":"Africa\/Abidjan"},{"geonameid":6458706,"name":"Universidad Austral de Chile","latitude":-39.80741,"longitude":-73.25106,"featureClass":"S","featureCode":"UNIV","countryCode":"CL","timezone":"America\/Santiago"},{"geonameid":6458731,"name":"Universidad Austral (Miraflores)","latitude":-39.83291,"longitude":-73.25057,"featureClass":"S","featureCode":"UNIV","countryCode":"CL","timezone":"America\/Santiago"},{"geonameid":6693531,"name":"Universidad San Sebasti\u00e1n","latitude":-36.81382,"longitude":-73.04432,"featureClass":"S","featureCode":"UNIV","countryCode":"CL","timezone":"America\/Santiago"},{"geonameid":6693532,"name":"Universidad de Concepci\u00f3n","latitude":-36.82907,"longitude":-73.03689,"featureClass":"S","featureCode":"UNIV","countryCode":"CL","timezone":"America\/Santiago"},{"geonameid":6693559,"name":"Universidad del Bio-Bio","latitude":-36.82062,"longitude":-73.01492,"featureClass":"S","featureCode":"UNIV","countryCode":"CL","timezone":"America\/Santiago"},{"geonameid":6693602,"name":"Universidad Catolica de la Santisima Concepci\u00f3n","latitude":-36.79815,"longitude":-73.05539,"featureClass":"S","featureCode":"UNIV","countryCode":"CL","timezone":"America\/Santiago"},{"geonameid":6929974,"name":"Universidad T\u00e9cnica Federico Santa Mar\u00eda","latitude":-33.03491,"longitude":-71.59582,"featureClass":"S","featureCode":"UNIV","countryCode":"CL","timezone":"America\/Santiago"},{"geonameid":8128760,"name":"Universidad Tecnol\u00f3gica de Chile","latitude":-39.81571,"longitude":-73.22688,"featureClass":"S","featureCode":"UNIV","countryCode":"CL","timezone":"America\/Santiago"},{"geonameid":8693005,"name":"Universidad de Playa Ancha de Ciencias de la Educaci\u00f3n","latitude":-33.02419,"longitude":-71.6409,"featureClass":"S","featureCode":"UNIV","countryCode":"CL","timezone":"America\/Santiago"},{"geonameid":8693011,"name":"Pontificia Universidad Cat\u00f3lica de Valpara\u00edso","latitude":-33.04454,"longitude":-71.60547,"featureClass":"S","featureCode":"UNIV","countryCode":"CL","timezone":"America\/Santiago"},{"geonameid":8693063,"name":"Facultad de Odontolog\u00eda - Universidad De Valpara\u00edso","latitude":-33.02039,"longitude":-71.64131,"featureClass":"S","featureCode":"UNIV","countryCode":"CL","timezone":"America\/Santiago"},{"geonameid":8693064,"name":"Facultad de Arquitectura - Universidad de Valpara\u00edso","latitude":-33.02471,"longitude":-71.63882,"featureClass":"S","featureCode":"UNIV","countryCode":"CL","timezone":"America\/Santiago"},{"geonameid":8693111,"name":"Edificio Monse\u00f1or Gimpert - Pontificia Universidad Cat\u00f3lica de Valpara\u00edso","latitude":-33.04488,"longitude":-71.60679,"featureClass":"S","featureCode":"UNIV","countryCode":"CL","timezone":"America\/Santiago"},{"geonameid":8693112,"name":"Edificio Isabel Brown Caces - Pontificia Universidad Cat\u00f3lica de Valpara\u00edso","latitude":-33.04453,"longitude":-71.6124,"featureClass":"S","featureCode":"UNIV","countryCode":"CL","timezone":"America\/Santiago"},{"geonameid":8693113,"name":"Centro Universitario Rafael Arizt\u00eda - Pontificia Universidad Cat\u00f3lica de Valpara\u00edso","latitude":-33.04459,"longitude":-71.61366,"featureClass":"S","featureCode":"UNIV","countryCode":"CL","timezone":"America\/Santiago"},{"geonameid":8693114,"name":"Centro Universitario Malaqu\u00edas Morales Mu\u00f1oz - Pontificia Universidad de Valpara\u00edso","latitude":-33.03917,"longitude":-71.60057,"featureClass":"S","featureCode":"UNIV","countryCode":"CL","timezone":"America\/Santiago"},{"geonameid":8693115,"name":"Instituto y Conservatorio de M\u00fasica - Pontificia Universidad Cat\u00f3lica de Valpara\u00edso","latitude":-33.04203,"longitude":-71.62753,"featureClass":"S","featureCode":"UNIV","countryCode":"CL","timezone":"America\/Santiago"},{"geonameid":8693117,"name":"Escuela de Arquitectura y Dise\u00f1o - Pontificia Universidad Cat\u00f3lica de Valpara\u00edso","latitude":-33.02681,"longitude":-71.58237,"featureClass":"S","featureCode":"UNIV","countryCode":"CL","timezone":"America\/Santiago"},{"geonameid":8693118,"name":"Centro Universitario Vito Alberti - Pontificia Universidad Cat\u00f3lica de Valpara\u00edso","latitude":-33.02333,"longitude":-71.63251,"featureClass":"S","featureCode":"UNIV","countryCode":"CL","timezone":"America\/Santiago"},{"geonameid":8693119,"name":"Escuela de Alimentos - Pontificia Universidad Cat\u00f3lica de Valpara\u00edso","latitude":-33.02316,"longitude":-71.63381,"featureClass":"S","featureCode":"UNIV","countryCode":"CL","timezone":"America\/Santiago"},{"geonameid":8693120,"name":"Instituto de Historia - Pontificia Universidad Cat\u00f3lica de Valpara\u00edso","latitude":-33.02676,"longitude":-71.55826,"featureClass":"S","featureCode":"UNIV","countryCode":"CL","timezone":"America\/Santiago"},{"geonameid":8693121,"name":"Centro Universitario Mar\u00eda Teresa Brown de Arizt\u00eda - Universidad Cat\u00f3lica de Valpara\u00edso","latitude":-33.01304,"longitude":-71.5397,"featureClass":"S","featureCode":"UNIV","countryCode":"CL","timezone":"America\/Santiago"},{"geonameid":8693123,"name":"Instituto de Arte - Pontificia Universidad Cat\u00f3lica de Valpara\u00edso","latitude":-33.03085,"longitude":-71.53013,"featureClass":"S","featureCode":"UNIV","countryCode":"CL","timezone":"America\/Santiago"},{"geonameid":8693124,"name":"Campus Curauma - Pontificia Universidad Cat\u00f3lica de Valpara\u00edso","latitude":-33.14644,"longitude":-71.57008,"featureClass":"S","featureCode":"UNIV","countryCode":"CL","timezone":"America\/Santiago"},{"geonameid":8693132,"name":"Facultad de Ingenier\u00eda - Universidad de Playa Ancha","latitude":-33.02084,"longitude":-71.64168,"featureClass":"S","featureCode":"UNIV","countryCode":"CL","timezone":"America\/Santiago"},{"geonameid":8693182,"name":"Campus San Felipe - Universidad de Valparaiso","latitude":-32.7417,"longitude":-70.70212,"featureClass":"S","featureCode":"UNIV","countryCode":"CL","timezone":"America\/Santiago"},{"geonameid":8693183,"name":"Campus San Felipe - Universidad de Playa Ancha","latitude":-32.74835,"longitude":-70.73112,"featureClass":"S","featureCode":"UNIV","countryCode":"CL","timezone":"America\/Santiago"},{"geonameid":8986729,"name":"Universidad T\u00e9cnica Federico Santa Mar\u00eda - Sede Vi\u00f1a del Mar \"Jos\u00e9 Miguel Carrera\"","latitude":-33.03639,"longitude":-71.48696,"featureClass":"S","featureCode":"UNIV","countryCode":"CL","timezone":"America\/Santiago"},{"geonameid":8986738,"name":"Falcultad de Agronom\u00eda - Pontificia Universidad Cat\u00f3lica de Valpara\u00edso","latitude":-32.89098,"longitude":-71.20819,"featureClass":"S","featureCode":"UNIV","countryCode":"CL","timezone":"America\/Santiago"},{"geonameid":11608903,"name":"Saint Thomas University","latitude":-33.44882,"longitude":-70.66315,"featureClass":"S","featureCode":"UNIV","countryCode":"CL","timezone":"America\/Santiago"},{"geonameid":11610182,"name":"Corporacion Santo Tomas","latitude":-33.44882,"longitude":-70.66096,"featureClass":"S","featureCode":"UNIV","countryCode":"CL","timezone":"America\/Santiago"},{"geonameid":11101595,"name":"Universit\u00e9 Yaound\u00e9 I","latitude":3.8571,"longitude":11.50107,"featureClass":"S","featureCode":"UNIV","countryCode":"CM","timezone":"Africa\/Douala"},{"geonameid":11494872,"name":"University of Yaound\u00e9 I","latitude":3.857,"longitude":11.5013,"featureClass":"S","featureCode":"UNIV","countryCode":"CM","timezone":"Africa\/Douala"},{"geonameid":11592379,"name":"International Relationships Institute of Cameroon","latitude":3.85458,"longitude":11.48906,"featureClass":"S","featureCode":"UNIV","countryCode":"CM","timezone":"Africa\/Douala"},{"geonameid":7602672,"name":"Yunnan University","latitude":25.05351,"longitude":102.70223,"featureClass":"S","featureCode":"UNIV","countryCode":"CN","timezone":"Asia\/Shanghai"},{"geonameid":7839208,"name":"Zhejiang university of technology","latitude":30.22792,"longitude":120.03306,"featureClass":"S","featureCode":"UNIV","countryCode":"CN","timezone":"Asia\/Shanghai"},{"geonameid":8604494,"name":"CS Department of Nanjing University","latitude":32.11315,"longitude":118.95816,"featureClass":"S","featureCode":"UNIV","countryCode":"CN","timezone":"Asia\/Shanghai"},{"geonameid":9172443,"name":"China Academy of Sciences Xishuangbanna Redai Botanical Garden Kunming Branch","latitude":25.0627,"longitude":102.70483,"featureClass":"S","featureCode":"UNIV","countryCode":"CN","timezone":"Asia\/Shanghai"},{"geonameid":10104856,"name":"Shandong University of Art & Design","latitude":36.64429,"longitude":117.04044,"featureClass":"S","featureCode":"UNIV","countryCode":"CN","timezone":"Asia\/Shanghai"},{"geonameid":10129392,"name":"Beijing Normal University","latitude":39.95983,"longitude":116.36854,"featureClass":"S","featureCode":"UNIV","countryCode":"CN","timezone":"Asia\/Shanghai"},{"geonameid":11552739,"name":"Fujian Medical University","latitude":26.06745,"longitude":119.29949,"featureClass":"S","featureCode":"UNIV","countryCode":"CN","timezone":"Asia\/Shanghai"},{"geonameid":11609903,"name":"Northeastern University","latitude":41.65433,"longitude":123.42378,"featureClass":"S","featureCode":"UNIV","countryCode":"CN","timezone":"Asia\/Shanghai"},{"geonameid":11919692,"name":"Guilin University of Electronic Technology, East Campus","latitude":25.28576,"longitude":110.33327,"featureClass":"S","featureCode":"UNIV","countryCode":"CN","timezone":"Asia\/Shanghai"},{"geonameid":11919693,"name":"Guilin University of Electronic Technology, Huajiang","latitude":25.30998,"longitude":110.41486,"featureClass":"S","featureCode":"UNIV","countryCode":"CN","timezone":"Asia\/Shanghai"},{"geonameid":12096984,"name":"Guilin University of Aerospace Technology","latitude":25.28495,"longitude":110.36685,"featureClass":"S","featureCode":"UNIV","countryCode":"CN","timezone":"Asia\/Shanghai"},{"geonameid":6956347,"name":"Ciudad Universitaria","latitude":4.63862,"longitude":-74.08424,"featureClass":"S","featureCode":"UNIV","countryCode":"CO","timezone":"America\/Bogota"},{"geonameid":7871409,"name":"Universidad Tecnol\u00f3gica de Bol\u00edvar","latitude":10.4129,"longitude":-75.538,"featureClass":"S","featureCode":"UNIV","countryCode":"CO","timezone":"America\/Bogota"},{"geonameid":9179567,"name":"University of La Salle Utopia","latitude":5.32336,"longitude":-72.29266,"featureClass":"S","featureCode":"UNIV","countryCode":"CO","timezone":"America\/Bogota"},{"geonameid":9224934,"name":"University of Antioquia","latitude":6.26706,"longitude":-75.56941,"featureClass":"S","featureCode":"UNIV","countryCode":"CO","timezone":"America\/Bogota"},{"geonameid":9795890,"name":"Universidad Cat\u00f3lica de Oriente","latitude":6.15045,"longitude":-75.36634,"featureClass":"S","featureCode":"UNIV","countryCode":"CO","timezone":"America\/Bogota"},{"geonameid":9795948,"name":"Universidad Santiago de Cali","latitude":3.40281,"longitude":-76.5481,"featureClass":"S","featureCode":"UNIV","countryCode":"CO","timezone":"America\/Bogota"},{"geonameid":9795949,"name":"Universidad del Norte","latitude":11.01966,"longitude":-74.85039,"featureClass":"S","featureCode":"UNIV","countryCode":"CO","timezone":"America\/Bogota"},{"geonameid":9795951,"name":"Universidad del Magdalena","latitude":11.22157,"longitude":-74.1862,"featureClass":"S","featureCode":"UNIV","countryCode":"CO","timezone":"America\/Bogota"},{"geonameid":9848751,"name":"National University of Colombia at Manizales","latitude":5.0556,"longitude":-75.4867,"featureClass":"S","featureCode":"UNIV","countryCode":"CO","timezone":"America\/Bogota"},{"geonameid":9848860,"name":"University of Valle","latitude":3.37501,"longitude":-76.53445,"featureClass":"S","featureCode":"UNIV","countryCode":"CO","timezone":"America\/Bogota"},{"geonameid":9849302,"name":"University of Cauca","latitude":2.44083,"longitude":-76.60472,"featureClass":"S","featureCode":"UNIV","countryCode":"CO","timezone":"America\/Bogota"},{"geonameid":10286072,"name":"Unicauca-FIET-1","latitude":2.44716,"longitude":-76.59762,"featureClass":"S","featureCode":"UNIV","countryCode":"CO","timezone":"America\/Bogota"},{"geonameid":10286083,"name":"Popayan Unicauca Fiet","latitude":2.44698,"longitude":-76.59817,"featureClass":"S","featureCode":"UNIV","countryCode":"CO","timezone":"America\/Bogota"},{"geonameid":10286086,"name":"Unicauca-FIET-3","latitude":2.44613,"longitude":-76.59836,"featureClass":"S","featureCode":"UNIV","countryCode":"CO","timezone":"America\/Bogota"},{"geonameid":11610180,"name":"Politecnico Grancolombiano Sede Medellin","latitude":6.26083,"longitude":-75.59049,"featureClass":"S","featureCode":"UNIV","countryCode":"CO","timezone":"America\/Bogota"},{"geonameid":6946062,"name":"Universidad de Costa Rica sede Occidente","latitude":10.08631,"longitude":-84.47971,"featureClass":"S","featureCode":"UNIV","countryCode":"CR","timezone":"America\/Costa_Rica"},{"geonameid":9252702,"name":"Universidad de Costa Rica sede del Caribe","latitude":9.98472,"longitude":-83.06124,"featureClass":"S","featureCode":"UNIV","countryCode":"CR","timezone":"America\/Costa_Rica"},{"geonameid":10376486,"name":"National University of Costa Rica","latitude":9.99866,"longitude":-84.11117,"featureClass":"S","featureCode":"UNIV","countryCode":"CR","timezone":"America\/Costa_Rica"},{"geonameid":10376490,"name":"Costa Rica Institute of Technology","latitude":9.85456,"longitude":-83.90903,"featureClass":"S","featureCode":"UNIV","countryCode":"CR","timezone":"America\/Costa_Rica"},{"geonameid":10376503,"name":"National University for Distance Learning","latitude":9.93398,"longitude":-84.06218,"featureClass":"S","featureCode":"UNIV","countryCode":"CR","timezone":"America\/Costa_Rica"},{"geonameid":11280337,"name":"Universidad de Costa Rica sede del Atl\u00e1ntico","latitude":9.90235,"longitude":-83.67079,"featureClass":"S","featureCode":"UNIV","countryCode":"CR","timezone":"America\/Costa_Rica"},{"geonameid":11280338,"name":"Universidad de Costa Rica sede de Guanacaste","latitude":10.61714,"longitude":-85.45885,"featureClass":"S","featureCode":"UNIV","countryCode":"CR","timezone":"America\/Costa_Rica"},{"geonameid":11280339,"name":"Universidad de Costa Rica sede del Pac\u00edfico","latitude":9.98158,"longitude":-84.81068,"featureClass":"S","featureCode":"UNIV","countryCode":"CR","timezone":"America\/Costa_Rica"},{"geonameid":11280340,"name":"Universidad de Costa Rica recinto de Golfito","latitude":8.64498,"longitude":-83.17194,"featureClass":"S","featureCode":"UNIV","countryCode":"CR","timezone":"America\/Costa_Rica"},{"geonameid":11280341,"name":"Universidad de Costa Rica","latitude":9.93668,"longitude":-84.05405,"featureClass":"S","featureCode":"UNIV","countryCode":"CR","timezone":"America\/Costa_Rica"},{"geonameid":11280342,"name":"Sede Interuniversitaria de Alajuela","latitude":10.01945,"longitude":-84.19702,"featureClass":"S","featureCode":"UNIV","countryCode":"CR","timezone":"America\/Costa_Rica"},{"geonameid":11280343,"name":"Universidad Nacional Campus Omar Dengo","latitude":9.99876,"longitude":-84.1115,"featureClass":"S","featureCode":"UNIV","countryCode":"CR","timezone":"America\/Costa_Rica"},{"geonameid":11280344,"name":"Universidad Nacional Campus Liberia","latitude":10.61751,"longitude":-85.45159,"featureClass":"S","featureCode":"UNIV","countryCode":"CR","timezone":"America\/Costa_Rica"},{"geonameid":11280345,"name":"Universidad Nacional Recinto Sarapiqu\u00ed","latitude":10.31915,"longitude":-83.92268,"featureClass":"S","featureCode":"UNIV","countryCode":"CR","timezone":"America\/Costa_Rica"},{"geonameid":11280346,"name":"Universidad Nacional Campus Benjam\u00edn N\u00fa\u00f1ez","latitude":9.97069,"longitude":-84.12901,"featureClass":"S","featureCode":"UNIV","countryCode":"CR","timezone":"America\/Costa_Rica"},{"geonameid":11280347,"name":"Universidad Nacional Campus P\u00e9rez Zeled\u00f3n","latitude":9.37971,"longitude":-83.6915,"featureClass":"S","featureCode":"UNIV","countryCode":"CR","timezone":"America\/Costa_Rica"},{"geonameid":11280348,"name":"Universidad Nacional Campus Coto","latitude":8.57341,"longitude":-82.87253,"featureClass":"S","featureCode":"UNIV","countryCode":"CR","timezone":"America\/Costa_Rica"},{"geonameid":11280349,"name":"Universidad Nacional Campus Nicoya","latitude":10.13451,"longitude":-85.44675,"featureClass":"S","featureCode":"UNIV","countryCode":"CR","timezone":"America\/Costa_Rica"},{"geonameid":11280350,"name":"Instituto Tecnol\u00f3gico de Costa Rica","latitude":9.85401,"longitude":-83.90954,"featureClass":"S","featureCode":"UNIV","countryCode":"CR","timezone":"America\/Costa_Rica"},{"geonameid":11280351,"name":"Instituto Tecnol\u00f3gico de Costa Rica Alajuela","latitude":10.36209,"longitude":-84.50994,"featureClass":"S","featureCode":"UNIV","countryCode":"CR","timezone":"America\/Costa_Rica"},{"geonameid":11280352,"name":"Instituto Tecnol\u00f3gico de Costa Rica San Jos\u00e9","latitude":9.93802,"longitude":-84.07536,"featureClass":"S","featureCode":"UNIV","countryCode":"CR","timezone":"America\/Costa_Rica"},{"geonameid":11280353,"name":"Universidad T\u00e9cnica Nacional","latitude":9.93706,"longitude":-84.37665,"featureClass":"S","featureCode":"UNIV","countryCode":"CR","timezone":"America\/Costa_Rica"},{"geonameid":11280354,"name":"Universidad T\u00e9cnica Nacional San Carlos","latitude":10.31909,"longitude":-84.42983,"featureClass":"S","featureCode":"UNIV","countryCode":"CR","timezone":"America\/Costa_Rica"},{"geonameid":11280355,"name":"Universidad T\u00e9cnica Nacional Puntarenas","latitude":9.97597,"longitude":-84.83317,"featureClass":"S","featureCode":"UNIV","countryCode":"CR","timezone":"America\/Costa_Rica"},{"geonameid":11280356,"name":"Universidad Estatal a Distancia","latitude":10.00718,"longitude":-84.12543,"featureClass":"S","featureCode":"UNIV","countryCode":"CR","timezone":"America\/Costa_Rica"},{"geonameid":11280357,"name":"Universidad Estatal a Distancia San Jos\u00e9","latitude":9.93398,"longitude":-84.06223,"featureClass":"S","featureCode":"UNIV","countryCode":"CR","timezone":"America\/Costa_Rica"},{"geonameid":11280358,"name":"Universidad Estatal a Distancia Cartago","latitude":9.86508,"longitude":-83.92388,"featureClass":"S","featureCode":"UNIV","countryCode":"CR","timezone":"America\/Costa_Rica"},{"geonameid":11280359,"name":"Universidad Estatal a Distancia Alajuela","latitude":10.01376,"longitude":-84.22285,"featureClass":"S","featureCode":"UNIV","countryCode":"CR","timezone":"America\/Costa_Rica"},{"geonameid":12261470,"name":"Universidad Tecnol\u00f3gica de La Habana Jos\u00e9 Antonio Echeverr\u00eda","latitude":23.05382,"longitude":-82.41826,"featureClass":"S","featureCode":"UNIV","countryCode":"CU","timezone":"America\/Havana"},{"geonameid":11612286,"name":"University of Cyprus","latitude":35.1601,"longitude":33.29629,"featureClass":"S","featureCode":"UNIV","countryCode":"CY","timezone":"Asia\/Nicosia"},{"geonameid":12156922,"name":"Digital Heritage Research Lab","latitude":34.67504,"longitude":33.0433,"featureClass":"S","featureCode":"UNIV","countryCode":"CY","timezone":"Europe\/Athens"},{"geonameid":6269524,"name":"Matematicko-fyzik\u00e1ln\u00ed fakulta UK","latitude":50.08837,"longitude":14.40383,"featureClass":"S","featureCode":"UNIV","countryCode":"CZ","timezone":"Europe\/Prague"},{"geonameid":6284953,"name":"Fakulta jadern\u00e1 a fyzik\u00e1ln\u011b in\u017een\u00fdrsk\u00e1, \u010cVUT","latitude":50.07445,"longitude":14.41678,"featureClass":"S","featureCode":"UNIV","countryCode":"CZ","timezone":"Europe\/Prague"},{"geonameid":6290260,"name":"Filozofick\u00e1 fakulta UK","latitude":50.08894,"longitude":14.41612,"featureClass":"S","featureCode":"UNIV","countryCode":"CZ","timezone":"Europe\/Prague"},{"geonameid":6290261,"name":"Pr\u00e1vnick\u00e1 fakulta UK","latitude":50.09154,"longitude":14.41713,"featureClass":"S","featureCode":"UNIV","countryCode":"CZ","timezone":"Europe\/Prague"},{"geonameid":6533402,"name":"Pedagogick\u00e1 fakulta UK","latitude":50.07964,"longitude":14.42074,"featureClass":"S","featureCode":"UNIV","countryCode":"CZ","timezone":"Europe\/Prague"},{"geonameid":6533597,"name":"Policejn\u00ed akademie","latitude":50.01735,"longitude":14.43018,"featureClass":"S","featureCode":"UNIV","countryCode":"CZ","timezone":"Europe\/Prague"},{"geonameid":6533759,"name":"Husitsk\u00e1 teologick\u00e1 fakulta UK","latitude":50.04534,"longitude":14.44165,"featureClass":"S","featureCode":"UNIV","countryCode":"CZ","timezone":"Europe\/Prague"},{"geonameid":6693249,"name":"University of Economics, Prague","latitude":50.08425,"longitude":14.44125,"featureClass":"S","featureCode":"UNIV","countryCode":"CZ","timezone":"Europe\/Prague"},{"geonameid":6694700,"name":"VUT Fakulta elektrotechniky a informatiky","latitude":49.1978,"longitude":16.59214,"featureClass":"S","featureCode":"UNIV","countryCode":"CZ","timezone":"Europe\/Prague"},{"geonameid":6694701,"name":"VUT Fakulta stavebn\u00ed","latitude":49.20607,"longitude":16.5909,"featureClass":"S","featureCode":"UNIV","countryCode":"CZ","timezone":"Europe\/Prague"},{"geonameid":6695065,"name":"Veterin\u00e1rn\u00ed a farmaceutick\u00e1 univerzita","latitude":49.21751,"longitude":16.59588,"featureClass":"S","featureCode":"UNIV","countryCode":"CZ","timezone":"Europe\/Prague"},{"geonameid":6695100,"name":"MUNI L\u00e9ka\u0159sk\u00e1 fakulta","latitude":49.19658,"longitude":16.60241,"featureClass":"S","featureCode":"UNIV","countryCode":"CZ","timezone":"Europe\/Prague"},{"geonameid":6695112,"name":"Mendlova zem\u011bd\u011blsk\u00e1 a lesnick\u00e1 \u0161kola","latitude":49.21067,"longitude":16.61523,"featureClass":"S","featureCode":"UNIV","countryCode":"CZ","timezone":"Europe\/Prague"},{"geonameid":6695155,"name":"MUNI Fakulta soci\u00e1ln\u00edch studi\u00ed","latitude":49.19955,"longitude":16.60033,"featureClass":"S","featureCode":"UNIV","countryCode":"CZ","timezone":"Europe\/Prague"},{"geonameid":6695179,"name":"MUNI Fakulta informatiky","latitude":49.21006,"longitude":16.59903,"featureClass":"S","featureCode":"UNIV","countryCode":"CZ","timezone":"Europe\/Prague"},{"geonameid":6254967,"name":"Universit\u00e4t","latitude":48.42029,"longitude":9.94615,"featureClass":"S","featureCode":"UNIV","countryCode":"DE","timezone":"Europe\/Berlin"},{"geonameid":6254968,"name":"Fachhochschule","latitude":48.41848,"longitude":9.93901,"featureClass":"S","featureCode":"UNIV","countryCode":"DE","timezone":"Europe\/Berlin"},{"geonameid":6269548,"name":"Hft stuttgart","latitude":48.78022,"longitude":9.17311,"featureClass":"S","featureCode":"UNIV","countryCode":"DE","timezone":"Europe\/Berlin"},{"geonameid":6295602,"name":"Mannheim University","latitude":49.483,"longitude":8.46181,"featureClass":"S","featureCode":"UNIV","countryCode":"DE","timezone":"Europe\/Berlin"},{"geonameid":6325560,"name":"Bauhaus-University Weimar - Bauhausstr. 11","latitude":50.9728,"longitude":11.32933,"featureClass":"S","featureCode":"UNIV","countryCode":"DE","timezone":"Europe\/Berlin"},{"geonameid":6325561,"name":"Bauhaus-University Weimar - Hausknechtstr. 7","latitude":50.97271,"longitude":11.32688,"featureClass":"S","featureCode":"UNIV","countryCode":"DE","timezone":"Europe\/Berlin"},{"geonameid":6325562,"name":"Bauhaus-University Weimar - Main building - Geschwister-Scholl-Str. 8","latitude":50.97454,"longitude":11.32896,"featureClass":"S","featureCode":"UNIV","countryCode":"DE","timezone":"Europe\/Berlin"},{"geonameid":6325563,"name":"Bauhaus-University Weimar - Mensa - Marienstr. 16","latitude":50.97529,"longitude":11.33054,"featureClass":"S","featureCode":"UNIV","countryCode":"DE","timezone":"Europe\/Berlin"},{"geonameid":6355080,"name":"TU Berlin","latitude":52.51221,"longitude":13.32697,"featureClass":"S","featureCode":"UNIV","countryCode":"DE","timezone":"Europe\/Berlin"},{"geonameid":6355081,"name":"Telefunken-Hochhaus","latitude":52.51303,"longitude":13.32002,"featureClass":"S","featureCode":"UNIV","countryCode":"DE","timezone":"Europe\/Berlin"},{"geonameid":6455390,"name":"Hochschule f\u00fcr Technik und Wirtschaft Dresden, Fachbereich Landbau\/Landespflege","latitude":51.00992,"longitude":13.87443,"featureClass":"S","featureCode":"UNIV","countryCode":"DE","timezone":"Europe\/Berlin"},{"geonameid":6544111,"name":"Universit\u00e4t Augsburg","latitude":48.33508,"longitude":10.89694,"featureClass":"S","featureCode":"UNIV","countryCode":"DE","timezone":"Europe\/Berlin"},{"geonameid":6544114,"name":"Fachhochschule Augsburg","latitude":48.3555,"longitude":10.90553,"featureClass":"S","featureCode":"UNIV","countryCode":"DE","timezone":"Europe\/Berlin"},{"geonameid":6544563,"name":"Technische Universit\u00e4t M\u00fcnchen","latitude":48.14912,"longitude":11.56729,"featureClass":"S","featureCode":"UNIV","countryCode":"DE","timezone":"Europe\/Berlin"},{"geonameid":6544574,"name":"Ludwig-Maximilians-Universit\u00e4t","latitude":48.15088,"longitude":11.58004,"featureClass":"S","featureCode":"UNIV","countryCode":"DE","timezone":"Europe\/Berlin"},{"geonameid":6612172,"name":"Hochschule f\u00fcr Musik und Theater Hannover","latitude":52.37758,"longitude":9.75438,"featureClass":"S","featureCode":"UNIV","countryCode":"DE","timezone":"Europe\/Berlin"},{"geonameid":6612173,"name":"Medizinische Hochschule Hannover","latitude":52.38369,"longitude":9.80414,"featureClass":"S","featureCode":"UNIV","countryCode":"DE","timezone":"Europe\/Berlin"},{"geonameid":6619273,"name":"University of Rostock Faculty for Agricultural and Environmental Sciences","latitude":54.07541,"longitude":12.09848,"featureClass":"S","featureCode":"UNIV","countryCode":"DE","timezone":"Europe\/Berlin"},{"geonameid":6692131,"name":"FH Flensburg","latitude":54.7746,"longitude":9.44927,"featureClass":"S","featureCode":"UNIV","countryCode":"DE","timezone":"Europe\/Berlin"},{"geonameid":6698561,"name":"Universit\u00e4t Stuttgart Campus Vaihingen","latitude":48.74515,"longitude":9.10591,"featureClass":"S","featureCode":"UNIV","countryCode":"DE","timezone":"Europe\/Berlin"},{"geonameid":6942953,"name":"Universit\u00e4t Passau","latitude":48.56809,"longitude":13.45308,"featureClass":"S","featureCode":"UNIV","countryCode":"DE","timezone":"Europe\/Berlin"},{"geonameid":6944074,"name":"Humboldt-Universit\u00e4t zu Berlin","latitude":52.5181,"longitude":13.3933,"featureClass":"S","featureCode":"UNIV","countryCode":"DE","timezone":"Europe\/Berlin"},{"geonameid":6944102,"name":"Technische Universit\u00e4t  Berlin","latitude":52.5119,"longitude":13.3264,"featureClass":"S","featureCode":"UNIV","countryCode":"DE","timezone":"Europe\/Berlin"},{"geonameid":6944322,"name":"Universit\u00e4t Hamburg","latitude":53.5669,"longitude":9.98389,"featureClass":"S","featureCode":"UNIV","countryCode":"DE","timezone":"Europe\/Berlin"},{"geonameid":6947470,"name":"Heinrich-Heine-Universit\u00e4t D\u00fcsseldorf","latitude":51.1903,"longitude":6.79417,"featureClass":"S","featureCode":"UNIV","countryCode":"DE","timezone":"Europe\/Berlin"},{"geonameid":6947519,"name":"Fachhochschule K\u00f6ln","latitude":50.9407,"longitude":6.95991,"featureClass":"S","featureCode":"UNIV","countryCode":"DE","timezone":"Europe\/Berlin"},{"geonameid":6947535,"name":"Universit\u00e4t zu K\u00f6ln","latitude":50.9282,"longitude":6.92826,"featureClass":"S","featureCode":"UNIV","countryCode":"DE","timezone":"Europe\/Berlin"},{"geonameid":7160123,"name":"Fachhochschule Frankfurt","latitude":50.12989,"longitude":8.69319,"featureClass":"S","featureCode":"UNIV","countryCode":"DE","timezone":"Europe\/Berlin"},{"geonameid":7302433,"name":"Staatliche Hochschule f\u00fcr Musik und Darstellende Kunst Stuttgart","latitude":48.7784,"longitude":9.18632,"featureClass":"S","featureCode":"UNIV","countryCode":"DE","timezone":"Europe\/Berlin"},{"geonameid":7732924,"name":"University of L\u00fcbeck","latitude":53.8344,"longitude":10.70392,"featureClass":"S","featureCode":"UNIV","countryCode":"DE","timezone":"Europe\/Berlin"},{"geonameid":8521330,"name":"VICCI Office Falkenbrunnen","latitude":51.03396,"longitude":13.71041,"featureClass":"S","featureCode":"UNIV","countryCode":"DE","timezone":"Europe\/Berlin"},{"geonameid":8521360,"name":"Fachhochschule S\u00fcdwestfalen","latitude":51.56223,"longitude":8.11344,"featureClass":"S","featureCode":"UNIV","countryCode":"DE","timezone":"Europe\/Berlin"},{"geonameid":9179928,"name":"DHBW Karlsruhe","latitude":49.02595,"longitude":8.38536,"featureClass":"S","featureCode":"UNIV","countryCode":"DE","timezone":"Europe\/Berlin"},{"geonameid":10227177,"name":"Hochschule f\u00fcr Technik und Wirtschaft Berlin - Campus Treskowallee","latitude":52.4931,"longitude":13.5258,"featureClass":"S","featureCode":"UNIV","countryCode":"DE","timezone":"Europe\/Berlin"},{"geonameid":10227182,"name":"Hochschule f\u00fcr Technik und Wirtschaft Berlin - Campus Wilhelminenhof","latitude":52.45746,"longitude":13.5258,"featureClass":"S","featureCode":"UNIV","countryCode":"DE","timezone":"Europe\/Berlin"},{"geonameid":10339155,"name":"Goethe University Frankfurt","latitude":50.11944,"longitude":8.65139,"featureClass":"S","featureCode":"UNIV","countryCode":"DE","timezone":"Europe\/Berlin"},{"geonameid":10376985,"name":"Ruhr University Bochum","latitude":51.44389,"longitude":7.26167,"featureClass":"S","featureCode":"UNIV","countryCode":"DE","timezone":"Europe\/Berlin"},{"geonameid":10859257,"name":"Technical University of Applied Sciences Wildau","latitude":52.31925,"longitude":13.63262,"featureClass":"S","featureCode":"UNIV","countryCode":"DE","timezone":"Europe\/Berlin"},{"geonameid":10943177,"name":"Ruprechts-Karl-Universit\u00e4t","latitude":49.40959,"longitude":8.70776,"featureClass":"S","featureCode":"UNIV","countryCode":"DE","timezone":"Europe\/Berlin"},{"geonameid":10943200,"name":"SRH Hochschule Heidelberg","latitude":49.41391,"longitude":8.65113,"featureClass":"S","featureCode":"UNIV","countryCode":"DE","timezone":"Europe\/Berlin"},{"geonameid":10943279,"name":"Hochschule Macromedia","latitude":48.81379,"longitude":9.21184,"featureClass":"S","featureCode":"UNIV","countryCode":"DE","timezone":"Europe\/Berlin"},{"geonameid":11001867,"name":"Heidelberg University of Education","latitude":49.42026,"longitude":8.66962,"featureClass":"S","featureCode":"UNIV","countryCode":"DE","timezone":"Europe\/Berlin"},{"geonameid":11001965,"name":"Mannheim University of Music and Performing Arts","latitude":49.48374,"longitude":8.47089,"featureClass":"S","featureCode":"UNIV","countryCode":"DE","timezone":"Europe\/Berlin"},{"geonameid":11002038,"name":"Film Academy Baden-W\u00fcrttemberg","latitude":48.89354,"longitude":9.19128,"featureClass":"S","featureCode":"UNIV","countryCode":"DE","timezone":"Europe\/Berlin"},{"geonameid":11002039,"name":"Academy of Performing Arts Baden-Wuerttemberg","latitude":48.89396,"longitude":9.19124,"featureClass":"S","featureCode":"UNIV","countryCode":"DE","timezone":"Europe\/Berlin"},{"geonameid":11279516,"name":"R\u00f6merstra\u00dfe 164","latitude":50.75215,"longitude":7.09734,"featureClass":"S","featureCode":"UNIV","countryCode":"DE","timezone":"Europe\/Berlin"},{"geonameid":11281814,"name":"Universit\u00e4t Heidelberg - Historisches Seminar","latitude":49.40985,"longitude":8.7069,"featureClass":"S","featureCode":"UNIV","countryCode":"DE","timezone":"Europe\/Berlin"},{"geonameid":11281815,"name":"Universit\u00e4t Heidelberg - Philosophisches Seminar","latitude":49.41012,"longitude":8.70745,"featureClass":"S","featureCode":"UNIV","countryCode":"DE","timezone":"Europe\/Berlin"},{"geonameid":11281816,"name":"Universit\u00e4t Heidelberg - Slavisches Institut","latitude":49.40994,"longitude":8.70748,"featureClass":"S","featureCode":"UNIV","countryCode":"DE","timezone":"Europe\/Berlin"},{"geonameid":11281819,"name":"Universit\u00e4t Heidelberg - Musikwissenschaftliches Seminar","latitude":49.41105,"longitude":8.70704,"featureClass":"S","featureCode":"UNIV","countryCode":"DE","timezone":"Europe\/Berlin"},{"geonameid":11281820,"name":"Universit\u00e4t Heidelberg - Juristische Institute","latitude":49.41042,"longitude":8.70731,"featureClass":"S","featureCode":"UNIV","countryCode":"DE","timezone":"Europe\/Berlin"},{"geonameid":11281822,"name":"Universit\u00e4t Heidelberg - Romanisches Seminar","latitude":49.41016,"longitude":8.70816,"featureClass":"S","featureCode":"UNIV","countryCode":"DE","timezone":"Europe\/Berlin"},{"geonameid":11281824,"name":"Universit\u00e4t Heidelberg - Anglistisches Seminar","latitude":49.41054,"longitude":8.70847,"featureClass":"S","featureCode":"UNIV","countryCode":"DE","timezone":"Europe\/Berlin"},{"geonameid":11281827,"name":"Universit\u00e4t Heidelberg - Kunsthistorisches Institut","latitude":49.40993,"longitude":8.70842,"featureClass":"S","featureCode":"UNIV","countryCode":"DE","timezone":"Europe\/Berlin"},{"geonameid":11281840,"name":"Universit\u00e4t Heidelberg - Psychologisches Institut","latitude":49.41139,"longitude":8.69801,"featureClass":"S","featureCode":"UNIV","countryCode":"DE","timezone":"Europe\/Berlin"},{"geonameid":11281905,"name":"Zeughaus-Mensa","latitude":49.41301,"longitude":8.70474,"featureClass":"S","featureCode":"UNIV","countryCode":"DE","timezone":"Europe\/Berlin"},{"geonameid":11281908,"name":"Universit\u00e4t Heidelberg - Institut f\u00fcr klassische Arch\u00e4ologie","latitude":49.41248,"longitude":8.70483,"featureClass":"S","featureCode":"UNIV","countryCode":"DE","timezone":"Europe\/Berlin"},{"geonameid":11281909,"name":"Universit\u00e4t Heidelberg - Institut f\u00fcr \u00c4gyptologie","latitude":49.41238,"longitude":8.70423,"featureClass":"S","featureCode":"UNIV","countryCode":"DE","timezone":"Europe\/Berlin"},{"geonameid":11281910,"name":"Universit\u00e4t Heidelberg - Institut f\u00fcr Byzantinische Arch\u00e4ologie und Kunstgeschichte","latitude":49.41248,"longitude":8.70537,"featureClass":"S","featureCode":"UNIV","countryCode":"DE","timezone":"Europe\/Berlin"},{"geonameid":11281911,"name":"Universit\u00e4t Heidelberg - Kollegiengeb\u00e4ude","latitude":49.41224,"longitude":8.70381,"featureClass":"S","featureCode":"UNIV","countryCode":"DE","timezone":"Europe\/Berlin"},{"geonameid":11281922,"name":"Universit\u00e4t Heidelberg - Germanistisches Seminar","latitude":49.41248,"longitude":8.71249,"featureClass":"S","featureCode":"UNIV","countryCode":"DE","timezone":"Europe\/Berlin"},{"geonameid":11281939,"name":"Universit\u00e4t Heidelberg - Institut f\u00fcr Bildungswissenschaft","latitude":49.40993,"longitude":8.69802,"featureClass":"S","featureCode":"UNIV","countryCode":"DE","timezone":"Europe\/Berlin"},{"geonameid":11281940,"name":"Universit\u00e4t Heidelberg - Japanologisches Seminar","latitude":49.40954,"longitude":8.69782,"featureClass":"S","featureCode":"UNIV","countryCode":"DE","timezone":"Europe\/Berlin"},{"geonameid":11281941,"name":"Universit\u00e4t Heidelberg - Universit\u00e4t Institut f\u00fcr Deutsch als Fremdsprache, Philologie","latitude":49.40928,"longitude":8.69823,"featureClass":"S","featureCode":"UNIV","countryCode":"DE","timezone":"Europe\/Berlin"},{"geonameid":11282224,"name":"Universit\u00e4t Heidelberg - Rektorat","latitude":49.41121,"longitude":8.70644,"featureClass":"S","featureCode":"UNIV","countryCode":"DE","timezone":"Europe\/Berlin"},{"geonameid":11282225,"name":"Universit\u00e4t Heidelberg - Institut f\u00fcr Assyrologie","latitude":49.41158,"longitude":8.7061,"featureClass":"S","featureCode":"UNIV","countryCode":"DE","timezone":"Europe\/Berlin"},{"geonameid":11282244,"name":"Universit\u00e4t Heidelberg - Institut f\u00fcr Geschichtliche Rechtswissenschaft","latitude":49.40874,"longitude":8.69808,"featureClass":"S","featureCode":"UNIV","countryCode":"DE","timezone":"Europe\/Berlin"},{"geonameid":11282250,"name":"Universit\u00e4t Heidelberg - Institut f\u00fcr Dolmetschen und \u00dcbersetzen","latitude":49.40964,"longitude":8.69863,"featureClass":"S","featureCode":"UNIV","countryCode":"DE","timezone":"Europe\/Berlin"},{"geonameid":11288275,"name":"Fachhochschule Schwetzingen - Hochschule f\u00fcr Rechtspflege","latitude":49.38349,"longitude":8.57144,"featureClass":"S","featureCode":"UNIV","countryCode":"DE","timezone":"Europe\/Berlin"},{"geonameid":11494823,"name":"TU Bergakademie Freiberg (Hauptgeb\u00e4ude)","latitude":50.91822,"longitude":13.34117,"featureClass":"S","featureCode":"UNIV","countryCode":"DE","timezone":"Europe\/Berlin"},{"geonameid":11524637,"name":"Universit\u00e4t Leipzig","latitude":51.33833,"longitude":12.37861,"featureClass":"S","featureCode":"UNIV","countryCode":"DE","timezone":"Europe\/Berlin"},{"geonameid":11524641,"name":"Martin-Luther-Universit\u00e4t Halle-Wittenberg","latitude":51.48671,"longitude":11.96941,"featureClass":"S","featureCode":"UNIV","countryCode":"DE","timezone":"Europe\/Berlin"},{"geonameid":11612484,"name":"Vasyl Karazin Kharkov National University","latitude":50.00454,"longitude":36.22814,"featureClass":"S","featureCode":"UNIV","countryCode":"DE","timezone":"Europe\/Kiev"},{"geonameid":12261406,"name":"University of Bayreuth","latitude":49.92633,"longitude":11.58504,"featureClass":"S","featureCode":"UNIV","countryCode":"DE","timezone":"Europe\/Berlin"},{"geonameid":8378717,"name":"Aalborg University","latitude":57.01517,"longitude":9.98682,"featureClass":"S","featureCode":"UNIV","countryCode":"DK","timezone":"Europe\/Copenhagen"},{"geonameid":11205167,"name":"University of Southern Denmark","latitude":55.36998,"longitude":10.42806,"featureClass":"S","featureCode":"UNIV","countryCode":"DK","timezone":"Europe\/Copenhagen"},{"geonameid":9166475,"name":"\u00c9cole sup\u00e9rieure des beaux-arts","latitude":36.76153,"longitude":3.04386,"featureClass":"S","featureCode":"UNIV","countryCode":"DZ","timezone":"Africa\/Algiers"},{"geonameid":10793985,"name":"Universit\u00e9 d'Alger","latitude":36.77113,"longitude":3.05513,"featureClass":"S","featureCode":"UNIV","countryCode":"DZ","timezone":"Africa\/Algiers"},{"geonameid":7602114,"name":"Universidad de Cuenca","latitude":-2.90005,"longitude":-79.00936,"featureClass":"S","featureCode":"UNIV","countryCode":"EC","timezone":"America\/Guayaquil"},{"geonameid":9613551,"name":"Universidad T\u00e9cnica Particular de Loja","latitude":-3.98795,"longitude":-79.19889,"featureClass":"S","featureCode":"UNIV","countryCode":"EC","timezone":"America\/Guayaquil"},{"geonameid":10793689,"name":"Universidad San Francisco de Quito","latitude":-0.19702,"longitude":-78.43582,"featureClass":"S","featureCode":"UNIV","countryCode":"EC","timezone":"America\/Guayaquil"},{"geonameid":11048543,"name":"Universidad del Azuay","latitude":-2.91862,"longitude":-78.99982,"featureClass":"S","featureCode":"UNIV","countryCode":"EC","timezone":"America\/Guayaquil"},{"geonameid":11281891,"name":"Northern Technical University","latitude":0.35812,"longitude":-78.1115,"featureClass":"S","featureCode":"UNIV","countryCode":"EC","timezone":"America\/Guayaquil"},{"geonameid":6698543,"name":"T\u00dc peahoone","latitude":58.38112,"longitude":26.71999,"featureClass":"S","featureCode":"UNIV","countryCode":"EE","timezone":"Europe\/Tallinn"},{"geonameid":10114293,"name":"University of Tartu","latitude":58.38108,"longitude":26.71982,"featureClass":"S","featureCode":"UNIV","countryCode":"EE","timezone":"Europe\/Tallinn"},{"geonameid":7870539,"name":"Al-Azhar University","latitude":30.04583,"longitude":31.2625,"featureClass":"S","featureCode":"UNIV","countryCode":"EG","timezone":"Africa\/Cairo"},{"geonameid":7874610,"name":"Cairo University","latitude":30.02733,"longitude":31.20797,"featureClass":"S","featureCode":"UNIV","countryCode":"EG","timezone":"Africa\/Cairo"},{"geonameid":8556315,"name":"Alexandria University","latitude":31.20194,"longitude":29.90528,"featureClass":"S","featureCode":"UNIV","countryCode":"EG","timezone":"Africa\/Cairo"},{"geonameid":8556318,"name":"Danish Egyptian Dialogue Institute","latitude":30.0574,"longitude":31.22038,"featureClass":"S","featureCode":"UNIV","countryCode":"EG","timezone":"Africa\/Cairo"},{"geonameid":8556327,"name":"French University of Egypt","latitude":30.15028,"longitude":31.60639,"featureClass":"S","featureCode":"UNIV","countryCode":"EG","timezone":"Africa\/Cairo"},{"geonameid":8556328,"name":"Goethe Institute","latitude":30.04574,"longitude":31.23613,"featureClass":"S","featureCode":"UNIV","countryCode":"EG","timezone":"Africa\/Cairo"},{"geonameid":8556342,"name":"Senghor University","latitude":31.19626,"longitude":29.89667,"featureClass":"S","featureCode":"UNIV","countryCode":"EG","timezone":"Africa\/Cairo"},{"geonameid":8556345,"name":"Arab Academy for Science and Technology and Maritime Transport","latitude":31.26448,"longitude":29.9989,"featureClass":"S","featureCode":"UNIV","countryCode":"EG","timezone":"Africa\/Cairo"},{"geonameid":11072241,"name":"University of Alexandria","latitude":31.20194,"longitude":29.90528,"featureClass":"S","featureCode":"UNIV","countryCode":"EG","timezone":"Africa\/Cairo"},{"geonameid":11592259,"name":"Suez Canal University","latitude":30.62053,"longitude":32.27019,"featureClass":"S","featureCode":"UNIV","countryCode":"EG","timezone":"Africa\/Cairo"},{"geonameid":12088847,"name":"Faculty of Engineering Ain Shams University","latitude":30.06515,"longitude":31.27905,"featureClass":"S","featureCode":"UNIV","countryCode":"EG","timezone":"Africa\/Cairo"},{"geonameid":10628601,"name":"Orota Hospital","latitude":15.33444,"longitude":38.92444,"featureClass":"S","featureCode":"UNIV","countryCode":"ER","timezone":"Africa\/Asmara"},{"geonameid":11101597,"name":"Eritrea Institute of Technology","latitude":15.2434,"longitude":38.7738,"featureClass":"S","featureCode":"UNIV","countryCode":"ER","timezone":"Africa\/Asmara"},{"geonameid":6255004,"name":"Edificio ATICA","latitude":38.02272,"longitude":-1.17451,"featureClass":"S","featureCode":"UNIV","countryCode":"ES","timezone":"Europe\/Madrid"},{"geonameid":6255088,"name":"Universidad de Alicante","latitude":38.38446,"longitude":-0.51224,"featureClass":"S","featureCode":"UNIV","countryCode":"ES","timezone":"Europe\/Madrid"},{"geonameid":6269515,"name":"Universitat de Barcelona","latitude":41.38636,"longitude":2.16353,"featureClass":"S","featureCode":"UNIV","countryCode":"ES","timezone":"Europe\/Madrid"},{"geonameid":6424329,"name":"IESE Business School","latitude":41.39367,"longitude":2.11051,"featureClass":"S","featureCode":"UNIV","countryCode":"ES","timezone":"Europe\/Madrid"},{"geonameid":6457224,"name":"University of Cantabria","latitude":43.47363,"longitude":-3.79904,"featureClass":"S","featureCode":"UNIV","countryCode":"ES","timezone":"Europe\/Madrid"},{"geonameid":6619138,"name":"Centro Polit\u00e9cnico Superior","latitude":41.68331,"longitude":-0.88738,"featureClass":"S","featureCode":"UNIV","countryCode":"ES","timezone":"Europe\/Madrid"},{"geonameid":6619206,"name":"Universidad de Le\u00f3n","latitude":42.61231,"longitude":-5.5597,"featureClass":"S","featureCode":"UNIV","countryCode":"ES","timezone":"Europe\/Madrid"},{"geonameid":6619295,"name":"Escola Superior Polit\u00e8cnica","latitude":41.60818,"longitude":0.62332,"featureClass":"S","featureCode":"UNIV","countryCode":"ES","timezone":"Europe\/Madrid"},{"geonameid":6693782,"name":"Facultad de Traducci\u00f3n E Interpretaci\u00f3n","latitude":37.17572,"longitude":-3.60341,"featureClass":"S","featureCode":"UNIV","countryCode":"ES","timezone":"Europe\/Madrid"},{"geonameid":6693785,"name":"Facultad de Biblioteconom\u00eda Y Documentaci\u00f3n","latitude":37.1935,"longitude":-3.59712,"featureClass":"S","featureCode":"UNIV","countryCode":"ES","timezone":"Europe\/Madrid"},{"geonameid":6693787,"name":"Facultad de Ciencias De La Actividad F\u00edsica Y Del Deporte","latitude":37.20488,"longitude":-3.59772,"featureClass":"S","featureCode":"UNIV","countryCode":"ES","timezone":"Europe\/Madrid"},{"geonameid":6693788,"name":"Facultad derecho","latitude":37.17812,"longitude":-3.6021,"featureClass":"S","featureCode":"UNIV","countryCode":"ES","timezone":"Europe\/Madrid"},{"geonameid":6693789,"name":"Facultad de Ciencias Del Trabajo","latitude":37.18048,"longitude":-3.60446,"featureClass":"S","featureCode":"UNIV","countryCode":"ES","timezone":"Europe\/Madrid"},{"geonameid":6696382,"name":"Universidad Internacional De Andaluc\u00eda \/ Sede Baeza","latitude":37.99136,"longitude":-3.46826,"featureClass":"S","featureCode":"UNIV","countryCode":"ES","timezone":"Europe\/Madrid"},{"geonameid":6696384,"name":"Universidad De Sevilla \/ Centro De Estudios Superiores Cardenal Spinola","latitude":37.37031,"longitude":-6.06589,"featureClass":"S","featureCode":"UNIV","countryCode":"ES","timezone":"Europe\/Madrid"},{"geonameid":6696385,"name":"Universidad De C\u00e1diz \/ Facultad de Medicina","latitude":36.53392,"longitude":-6.29799,"featureClass":"S","featureCode":"UNIV","countryCode":"ES","timezone":"Europe\/Madrid"},{"geonameid":6696387,"name":"Universidad De C\u00f3rdoba \/ Facultad de Medicina","latitude":37.87324,"longitude":-4.78746,"featureClass":"S","featureCode":"UNIV","countryCode":"ES","timezone":"Europe\/Madrid"},{"geonameid":6696392,"name":"Universidad De C\u00f3rdoba \/ Facultad de Ciencias De La Educaci\u00f3n","latitude":37.86933,"longitude":-4.80046,"featureClass":"S","featureCode":"UNIV","countryCode":"ES","timezone":"Europe\/Madrid"},{"geonameid":6696394,"name":"Universidad De C\u00f3rdoba \/ Facultad derecho","latitude":37.8851,"longitude":-4.7673,"featureClass":"S","featureCode":"UNIV","countryCode":"ES","timezone":"Europe\/Madrid"},{"geonameid":6696396,"name":"Universidad De C\u00f3rdoba \/ Facultad de Filosof\u00eda Y Letras","latitude":37.88005,"longitude":-4.78191,"featureClass":"S","featureCode":"UNIV","countryCode":"ES","timezone":"Europe\/Madrid"},{"geonameid":6697293,"name":"Universidad Miguel Hern\u00e1ndez","latitude":38.27538,"longitude":-0.68716,"featureClass":"S","featureCode":"UNIV","countryCode":"ES","timezone":"Europe\/Madrid"},{"geonameid":6697826,"name":"Escuela universitaria de ingener\u00eda t\u00e9cnica inform\u00e1tica de Oviedo","latitude":43.35491,"longitude":-5.85131,"featureClass":"S","featureCode":"UNIV","countryCode":"ES","timezone":"Europe\/Madrid"},{"geonameid":6697827,"name":"Edificio Historico de la Universidad de Oviedo","latitude":43.36174,"longitude":-5.84629,"featureClass":"S","featureCode":"UNIV","countryCode":"ES","timezone":"Europe\/Madrid"},{"geonameid":6697831,"name":"Escuela Politecnica superior de Ingenieria de Gijon","latitude":43.52322,"longitude":-5.62573,"featureClass":"S","featureCode":"UNIV","countryCode":"ES","timezone":"Europe\/Madrid"},{"geonameid":7173049,"name":"Mediateca Universidad de Oviedo","latitude":43.24242,"longitude":-5.77641,"featureClass":"S","featureCode":"UNIV","countryCode":"ES","timezone":"Europe\/Madrid"},{"geonameid":7603013,"name":"Real Fabrica de Tabaco","latitude":37.3808,"longitude":-5.99051,"featureClass":"S","featureCode":"UNIV","countryCode":"ES","timezone":"Europe\/Madrid"},{"geonameid":8051035,"name":"ETSIT Escuela T\u00e9cnica Superior de Ingenier\u00eda de Telecomunicaci\u00f3n (UMA)","latitude":36.71546,"longitude":-4.47724,"featureClass":"S","featureCode":"UNIV","countryCode":"ES","timezone":"Europe\/Madrid"},{"geonameid":8063765,"name":"Universidad de Salamanca","latitude":40.96134,"longitude":-5.66693,"featureClass":"S","featureCode":"UNIV","countryCode":"ES","timezone":"Europe\/Madrid"},{"geonameid":8224044,"name":"Universitat Jaume I","latitude":39.99415,"longitude":-0.06884,"featureClass":"S","featureCode":"UNIV","countryCode":"ES","timezone":"Europe\/Madrid"},{"geonameid":9881938,"name":"Campus Universitario de Tafira","latitude":28.07156,"longitude":-15.45457,"featureClass":"S","featureCode":"UNIV","countryCode":"ES","timezone":"Europe\/London"},{"geonameid":9883842,"name":"University of Las Palmas de Gran Canaria","latitude":28.09914,"longitude":-15.41989,"featureClass":"S","featureCode":"UNIV","countryCode":"ES","timezone":"Atlantic\/Canary"},{"geonameid":10376975,"name":"University of the Basque County","latitude":43.33006,"longitude":-2.96528,"featureClass":"S","featureCode":"UNIV","countryCode":"ES","timezone":"Europe\/Madrid"},{"geonameid":11055121,"name":"Faculty of Mathematical Science","latitude":40.43726,"longitude":-3.72514,"featureClass":"S","featureCode":"UNIV","countryCode":"ES","timezone":"Europe\/Madrid"},{"geonameid":11071315,"name":"Complutense University of Madrid","latitude":40.44904,"longitude":-3.72703,"featureClass":"S","featureCode":"UNIV","countryCode":"ES","timezone":"Europe\/Madrid"},{"geonameid":11611231,"name":"Universidad Europea de Madrid","latitude":40.37183,"longitude":-3.91895,"featureClass":"S","featureCode":"UNIV","countryCode":"ES","timezone":"Europe\/Madrid"},{"geonameid":11856453,"name":"Universit\u00e9 de Deusto","latitude":43.27125,"longitude":-2.93856,"featureClass":"S","featureCode":"UNIV","countryCode":"ES","timezone":"Europe\/Madrid"},{"geonameid":7874611,"name":"Addis Ababa University","latitude":9.04667,"longitude":38.75917,"featureClass":"S","featureCode":"UNIV","countryCode":"ET","timezone":"Africa\/Addis_Ababa"},{"geonameid":8692909,"name":"Hawassa University","latitude":7.06233,"longitude":38.50135,"featureClass":"S","featureCode":"UNIV","countryCode":"ET","timezone":"Africa\/Addis_Ababa"},{"geonameid":10376723,"name":"Jimma University","latitude":7.685,"longitude":36.83139,"featureClass":"S","featureCode":"UNIV","countryCode":"ET","timezone":"Africa\/Addis_Ababa"},{"geonameid":10378004,"name":"Mekelle University","latitude":13.4811,"longitude":39.4878,"featureClass":"S","featureCode":"UNIV","countryCode":"ET","timezone":"Africa\/Addis_Ababa"},{"geonameid":10400152,"name":"Arba Minch University","latitude":6.06535,"longitude":37.56019,"featureClass":"S","featureCode":"UNIV","countryCode":"ET","timezone":"Africa\/Addis_Ababa"},{"geonameid":10400283,"name":"Bahir Dar University","latitude":11.59722,"longitude":37.39583,"featureClass":"S","featureCode":"UNIV","countryCode":"ET","timezone":"Africa\/Addis_Ababa"},{"geonameid":11611131,"name":"University of the South Pacific","latitude":-18.14995,"longitude":178.44183,"featureClass":"S","featureCode":"UNIV","countryCode":"FJ","timezone":"Pacific\/Fiji"},{"geonameid":11610809,"name":"College of Micronesia-FSM","latitude":6.9086,"longitude":158.1598,"featureClass":"S","featureCode":"UNIV","countryCode":"FM","timezone":"Pacific\/Pohnpei"},{"geonameid":11611596,"name":"N\u00f3at\u00fan","latitude":62.00585,"longitude":-6.77925,"featureClass":"S","featureCode":"UNIV","countryCode":"FO","timezone":"Atlantic\/Faroe"},{"geonameid":11837864,"name":"Seturskrivstovan","latitude":62.00734,"longitude":-6.77882,"featureClass":"S","featureCode":"UNIV","countryCode":"FO","timezone":"Atlantic\/Faroe"},{"geonameid":6457252,"name":"Sorbonne","latitude":48.84869,"longitude":2.34363,"featureClass":"S","featureCode":"UNIV","countryCode":"FR","timezone":"Europe\/Paris"},{"geonameid":6697303,"name":"INSTITUT UNIVERSITAIRE DE FORMATION DES MA\u00ceTRES CHAMPAGNE-ARDENNE (IUFM) - CAMPUS DE TROYES","latitude":48.27755,"longitude":4.06846,"featureClass":"S","featureCode":"UNIV","countryCode":"FR","timezone":"Europe\/Paris"},{"geonameid":6697305,"name":"Universit\u00e9 de technologie de Troyes","latitude":48.26908,"longitude":4.07076,"featureClass":"S","featureCode":"UNIV","countryCode":"FR","timezone":"Europe\/Paris"},{"geonameid":6697306,"name":"FACULT\u00c9 DE LETTRES ET SCIENCES HUMAINES","latitude":48.29783,"longitude":4.08034,"featureClass":"S","featureCode":"UNIV","countryCode":"FR","timezone":"Europe\/Paris"},{"geonameid":6697316,"name":"Centre universitaire de formation et de recherche Jean-Francois Champollion","latitude":44.35454,"longitude":2.56329,"featureClass":"S","featureCode":"UNIV","countryCode":"FR","timezone":"Europe\/Paris"},{"geonameid":6697317,"name":"Universit\u00e9 des Sciences sociales Toulouse I","latitude":44.36111,"longitude":2.57773,"featureClass":"S","featureCode":"UNIV","countryCode":"FR","timezone":"Europe\/Paris"},{"geonameid":6697319,"name":"Universite Paul Cezanne Aix-Marseille III","latitude":43.29817,"longitude":5.38261,"featureClass":"S","featureCode":"UNIV","countryCode":"FR","timezone":"Europe\/Paris"},{"geonameid":6697320,"name":"Institut de Management Public et Gouvernance Territoriale","latitude":43.30123,"longitude":5.39214,"featureClass":"S","featureCode":"UNIV","countryCode":"FR","timezone":"Europe\/Paris"},{"geonameid":6697323,"name":"UFR Civilisations et Humanit\u00e9s","latitude":43.67559,"longitude":4.62579,"featureClass":"S","featureCode":"UNIV","countryCode":"FR","timezone":"Europe\/Paris"},{"geonameid":6697324,"name":"Arles Universit\u00e9 de Provence","latitude":43.67212,"longitude":4.64033,"featureClass":"S","featureCode":"UNIV","countryCode":"FR","timezone":"Europe\/Paris"},